,Unnamed: 0,ID,Title,Lat,Lon,Slug,2017-1,2017-2,2017-3,2017-4,2017-5,2017-6,2017-7,2017-8,2017-9,2017-10,2017-11,2017-12,2018-1,2018-2,2018-3,2018-4,2018-5,2018-6,2018-7,2018-8,2018-9,2018-10,2018-11,2018-12,2019-1,2019-2,2019-3,2019-4,2019-5,2019-6,2019-7,2019-8,2019-9,2019-10,2019-11,2019-12,2020-1,2020-2,2020-3,2020-4,2020-5,2020-6,2020-7,2020-8,2020-9,2020-10,2020-11,2020-12
0,0,222130034,Storm Model Management,51.489129999999996,-0.16626,storm-model-management,20,29,26,35,26,32,22,18,30,26,17,30,19,21,6,17,12,22,25,16,28,29,34,20,16,22,26,14,18,22,44,16,22,24,13,15,6,0,0,0,0,0,0,0,0,0,0,0
1,1,899603878,The Viper Rooms - Kingston Upon Thames,51.4106342203,-0.3079781959,the-viper-rooms-kingston-upon-thames,67,88,88,54,90,34,35,40,55,108,77,55,75,60,72,48,70,27,44,27,62,86,97,55,55,56,55,50,58,35,31,42,71,118,77,63,21,0,0,0,0,0,0,0,0,0,0,0
2,2,1000488983321683,Kravica Falls Bosnia,51.5524949,-0.0344041,kravica-falls-bosnia,0,0,0,0,0,0,0,1,0,1,0,0,0,0,0,0,0,1,0,0,0,1,0,0,0,0,0,0,0,3,3,0,7,27,12,4,7,0,0,0,0,0,0,0,0,0,0,0
3,3,100101241462289,Italian Brothers,51.460944899999994,-0.16632,italian-brothers,0,0,0,0,0,0,0,0,0,0,0,0,0,0,0,0,0,0,0,0,0,0,0,0,0,0,0,0,0,0,0,0,0,0,1,11,3,0,0,0,0,0,0,0,0,0,0,0
4,4,100104304795672,Secret Cinema - Stranger Things,51.515833513000004,0.007212147800000001,secret-cinema-stranger-things,0,0,0,0,0,0,0,0,0,0,0,0,0,0,0,0,0,0,0,0,0,0,0,0,0,0,0,0,0,0,0,0,0,0,263,859,461,0,0,0,0,0,0,0,0,0,0,0
5,6,100125174703293,First Class Learning Balham,51.445956743500005,-0.1444101334,first-class-learning-balham,0,0,0,0,0,0,0,0,0,0,0,0,0,0,0,0,0,0,0,0,0,0,0,0,0,0,0,0,0,0,0,5,22,14,9,8,0,0,0,0,0,0,0,0,0,0,0,0
6,8,892668138,TGI Fridays Kingston,51.412723956099995,-0.3049767014,tgi-fridays-kingston,0,0,0,0,0,0,0,0,0,3,6,7,1,0,0,0,0,5,5,6,5,6,14,11,7,6,14,6,4,10,1,7,2,1,0,0,0,0,0,0,0,0,0,0,0,0,0,0
7,9,100139274753009,Reno Designs,51.464529999999996,-0.2672,reno-designs,0,0,0,0,0,0,0,0,0,0,0,0,0,0,0,0,0,0,0,0,0,0,0,0,0,0,0,0,0,0,0,0,0,2,0,14,0,0,0,0,0,0,0,0,0,0,0,0
8,10,100140074719136,The Crooked Billet,51.4159962007,-0.0532746785,the-crooked-billet,0,0,0,0,0,0,0,0,0,0,0,0,0,0,0,0,0,0,0,0,0,0,0,0,0,0,0,0,0,0,0,0,0,0,2,2,5,0,0,0,0,0,0,0,0,0,0,0
9,11,466237358,The Bridge Tavern,51.61416,-0.2491,the-bridge-tavern,0,0,0,0,0,0,0,0,0,0,0,0,0,0,0,0,0,0,0,0,0,0,0,0,0,0,2,0,0,0,0,0,0,0,0,0,0,0,0,0,0,0,0,0,0,0,0,0
10,12,100163990128209,BBC Dari,51.51851,-0.14404,bbc-dari,0,0,0,0,0,0,2,1,0,1,0,0,1,0,0,0,0,0,2,1,0,0,0,0,0,0,0,0,0,0,1,0,0,2,5,0,0,0,0,0,0,0,0,0,0,0,0,0
11,14,100187211340416,Cable Depot,51.4943700485,0.046005249000000005,cable-depot,0,0,0,0,0,0,0,0,0,0,0,0,0,0,0,0,0,0,0,0,0,0,0,0,0,0,0,0,0,0,0,0,1,3,15,2,0,0,0,0,0,0,0,0,0,0,0,0
12,16,1029907442,Mill Hill Village Cricket Club,51.6198108401,-0.2127566495,mill-hill-village-cricket-club,0,0,4,1,0,2,0,1,1,1,0,0,0,0,0,0,3,1,2,1,1,0,1,0,1,0,2,5,2,7,1,1,0,0,0,0,0,0,0,0,0,0,0,0,0,0,0,0
13,17,1002190866575376,"Tottenham Hale,Nort London",51.5888012783,-0.059945522800000005,tottenham-halenort-london,0,0,0,1,0,2,8,9,17,52,64,79,110,181,251,201,217,208,106,94,89,97,90,382,333,135,82,46,95,177,191,192,172,110,59,27,10,0,0,0,0,0,0,0,0,0,0,0
14,18,100223738055379,Mademoiselle Hairdressers,51.450554100000005,0.0583275,mademoiselle-hairdressers,0,0,0,0,0,0,0,0,0,0,0,0,0,0,0,0,0,0,0,0,0,0,0,0,0,0,0,0,0,0,0,0,0,1,0,0,0,0,0,0,0,0,0,0,0,0,0,0
15,19,100232014693426,Lemonmade,51.5945576,-0.1144182,lemonmade,0,0,0,0,0,0,0,0,0,0,0,0,0,0,0,0,0,0,0,0,0,0,0,0,0,0,0,0,0,0,0,0,6,8,0,0,0,0,0,0,0,0,0,0,0,0,0,0
16,20,252734385,"Bickley, Bromley, United Kingdom",51.400160303999996,0.0455251201,bickley-bromley-united-kingdom,16,13,25,31,20,29,18,25,26,19,20,49,20,34,55,44,42,65,44,42,28,28,47,53,47,55,74,89,56,54,49,63,61,69,78,71,23,0,0,0,0,0,0,0,0,0,0,0
17,21,100247234740700,"Pokemon Centre London, Westfield",51.5073588912,-0.22285597780000002,pokemon-centre-london-westfield,0,0,0,0,0,0,0,0,0,0,0,0,0,0,0,0,0,0,0,0,0,0,0,0,0,0,0,0,0,0,0,0,0,48,93,0,0,0,0,0,0,0,0,0,0,0,0,0
18,22,1022534563,WAR Gallery,51.4561237,0.0123841,war-gallery,0,5,2,0,7,9,4,13,6,3,23,12,8,3,5,1,4,4,0,2,1,14,1,2,3,1,1,1,3,6,3,5,2,2,1,0,0,0,0,0,0,0,0,0,0,0,0,0
19,23,1017845480,The Monument,51.5101338095,-0.08604753789999998,the-monument,572,506,652,645,606,519,565,571,556,485,465,336,457,534,424,484,494,376,385,398,404,416,439,342,411,435,428,443,392,343,329,392,348,329,276,241,128,0,0,0,0,0,0,0,0,0,0,0
20,26,1002694223109105,Agnes Katona Ltd.,51.415838960100004,-0.17812395530000003,agnes-katona-ltd,0,0,0,0,0,0,0,0,0,0,0,0,0,0,4,5,2,0,0,1,16,14,12,7,3,4,0,0,0,0,0,1,0,0,0,0,0,0,0,0,0,0,0,0,0,0,0,0
21,27,100271954687923,Club No Problem UK,51.5608251,0.081735,club-no-problem-uk,0,0,0,0,0,0,0,0,0,0,0,0,0,0,0,0,0,0,0,0,0,0,0,0,0,0,0,0,0,0,0,0,0,0,0,0,1,0,0,0,0,0,0,0,0,0,0,0
22,28,18588048,Saikei,51.492255638900005,0.0095789458,saikei,23,13,8,5,9,0,0,0,1,0,0,0,0,0,0,0,0,0,4,2,8,7,3,13,8,10,8,5,29,15,12,22,9,7,7,12,4,0,0,0,0,0,0,0,0,0,0,0
23,29,100280634694884,Ajwa London,51.61712,-0.0121,ajwa-london,0,0,0,0,0,0,0,0,0,0,0,0,0,0,0,0,0,0,0,0,0,0,0,0,0,0,0,0,0,0,0,0,0,1,0,0,0,0,0,0,0,0,0,0,0,0,0,0
24,30,100282420145144,Robert James Jewellers,51.38975,0.07222999999999999,robert-james-jewellers,0,0,0,0,0,1,0,0,0,1,0,0,0,0,0,1,0,1,0,0,0,0,0,0,1,2,0,0,0,0,0,0,0,0,0,0,0,0,0,0,0,0,0,0,0,0,0,0
25,31,1029887402,Eltham Park North,51.458220000000004,0.06683,eltham-park-north,0,1,0,1,3,2,2,1,0,1,4,3,2,1,4,2,10,4,1,0,4,1,0,3,3,4,2,4,2,0,10,21,7,0,4,10,2,0,0,0,0,0,0,0,0,0,0,0
26,32,100284984691399,Nando's Finchley - High Road,51.61482,-0.17626,nandos-finchley-high-road,0,0,0,0,0,0,0,0,0,0,0,0,0,0,0,0,0,0,0,0,0,0,0,0,0,0,0,0,0,0,0,0,0,0,0,1,0,0,0,0,0,0,0,0,0,0,0,0
27,33,100294631369536,The George Inn,51.407214976400006,-0.0276748843,the-george-inn,0,0,0,0,0,0,0,0,0,0,0,0,0,0,0,0,0,0,0,0,0,0,0,0,0,0,0,0,0,0,0,0,2,5,0,0,0,0,0,0,0,0,0,0,0,0,0,0
28,34,1031996096,Know How You,51.4194025324,-0.0184965134,know-how-you,0,0,0,0,0,0,0,1,0,1,0,1,0,0,0,0,0,0,0,0,1,0,0,1,0,0,0,0,0,0,0,0,0,0,0,0,0,0,0,0,0,0,0,0,0,0,0,0
29,35,219463204,Cavendish Banqueting,51.595513583999995,-0.26084843399999996,cavendish-banqueting,0,0,0,0,0,0,0,0,0,0,0,0,0,0,0,27,26,8,14,12,35,70,35,26,22,33,42,58,23,29,21,21,27,25,50,19,11,0,0,0,0,0,0,0,0,0,0,0
30,36,100327993401599,APS Psychotherapy,51.5945508543,0.0245704315,aps-psychotherapy,0,0,0,0,0,0,0,0,0,0,1,0,0,0,0,0,0,0,0,0,0,0,0,0,0,0,0,0,0,0,0,0,0,0,0,0,0,0,0,0,0,0,0,0,0,0,0,0
31,38,100352518151661,Peachy Goat,51.452828000000004,-0.10052489999999999,peachy-goat,0,0,0,0,0,0,0,0,0,0,0,0,0,0,0,0,0,0,0,0,0,0,0,0,0,0,0,0,0,0,0,0,0,0,0,1,1,0,0,0,0,0,0,0,0,0,0,0
32,39,100380234678362,Southwark Park,51.4946159162,-0.0547201652,southwark-park,0,0,0,0,0,0,1,0,0,1,0,0,0,0,0,0,1,0,0,0,0,0,0,1,0,0,0,0,0,0,0,0,137,231,392,0,0,0,0,0,0,0,0,0,0,0,0,0
33,40,100383258008267,Kingdom Of Corals LTD,51.423911,-0.12097349999999998,kingdom-of-corals-ltd,0,0,0,0,0,0,0,0,0,0,0,0,0,0,0,0,0,0,0,0,0,0,0,0,0,0,0,0,0,0,0,0,4,2,0,0,0,0,0,0,0,0,0,0,0,0,0,0
34,41,100384591375855,Nando's Peckham,51.47322,-0.06494,nandos-peckham,0,0,0,0,0,0,0,0,0,0,0,0,0,0,0,0,0,0,0,0,0,0,0,0,0,0,0,0,0,0,0,0,0,0,1,4,1,0,0,0,0,0,0,0,0,0,0,0
35,44,100389298034061,T Cap Tamweel Limited-شركة تي كاب للتمويل,51.50902,-0.15353,t-cap-tamweel-limited-,0,0,0,0,0,0,0,0,0,0,0,0,0,0,0,0,0,0,0,0,0,0,0,0,0,0,0,0,0,0,0,0,0,0,0,1,0,0,0,0,0,0,0,0,0,0,0,0
36,45,1029519851,Dominique Ansel Bakery London,51.4928920175,-0.149304054,dominique-ansel-bakery-london,0,0,0,0,0,0,0,0,0,0,0,0,0,0,0,0,0,0,0,0,0,24,552,643,469,532,491,484,543,429,411,478,369,497,435,430,143,0,0,0,0,0,0,0,0,0,0,0
37,46,543603550,Kingstonian Ice Cream,51.415279999999996,-0.28964,kingstonian-ice-cream,0,0,1,1,0,0,0,0,0,0,0,0,1,0,0,0,0,0,0,0,1,0,0,0,0,0,0,0,0,0,0,1,0,0,0,0,0,0,0,0,0,0,0,0,0,0,0,0
38,47,227746474,Wimbledon Wetherspoons,51.419171758699996,-0.20252325780000002,wimbledon-wetherspoons,8,5,3,14,7,6,2,7,12,7,0,8,1,1,4,1,1,0,1,1,1,0,0,5,0,1,0,1,1,2,4,4,2,7,2,8,6,0,0,0,0,0,0,0,0,0,0,0
39,50,100428424778486,Saby Crafts,51.4034,0.010320000000000001,saby-crafts,0,0,0,0,0,0,0,0,0,0,0,0,0,0,0,0,0,0,0,0,0,0,0,0,0,0,0,0,0,0,0,0,0,0,0,9,8,0,0,0,0,0,0,0,0,0,0,0
40,51,227767156,Wembley Student Accommodation,51.5623316531,-0.2783588617,wembley-student-accommodation,4,3,2,1,1,2,15,3,2,26,14,6,1,2,1,1,0,0,0,0,1,0,1,0,0,0,0,0,1,0,0,0,0,0,0,0,0,0,0,0,0,0,0,0,0,0,0,0
41,52,100444554728943,Crepes Cafe,51.54849,-0.23786999999999997,crepes-cafe,0,0,0,0,0,0,0,0,0,0,0,0,0,0,0,0,0,0,0,0,0,0,0,0,0,0,0,0,0,0,0,0,0,1,0,0,0,0,0,0,0,0,0,0,0,0,0,0
42,53,100447301337457,IDevice repair Lab,51.427090299999996,-0.1314015,idevice-repair-lab,0,0,0,0,0,0,0,0,0,0,0,0,0,0,0,0,0,0,0,0,0,0,0,0,0,0,0,0,0,0,0,0,0,0,1,0,0,0,0,0,0,0,0,0,0,0,0,0
43,56,100497247226343,Wandsworth Common,51.44540437,-0.1662967249,wandsworth-common,0,0,0,0,0,3,0,0,0,0,0,0,0,0,0,0,1,1,0,0,0,0,0,0,0,0,0,0,0,4,1,0,129,0,0,0,0,0,0,0,0,0,0,0,0,0,0,0
44,57,894666395,Olivelli East Dulwich,51.456898838,-0.0754711953,olivelli-east-dulwich,0,0,0,0,1,2,2,4,3,3,0,2,0,0,2,1,1,5,1,2,2,1,2,1,3,1,4,3,5,2,1,0,2,1,1,4,0,0,0,0,0,0,0,0,0,0,0,0
45,58,100500118074168,Blackheath Wanderers Football Girls,51.4545949,0.0204581,blackheath-wanderers-football-girls,0,0,0,0,0,0,0,0,0,0,0,0,0,0,0,0,0,0,0,0,0,0,0,0,0,0,0,0,0,0,0,0,0,0,1,0,3,0,0,0,0,0,0,0,0,0,0,0
46,59,1005083239697453,Andi's Childminding,51.5729688046,-0.20941615100000002,andis-childminding,0,0,0,0,0,0,0,0,0,0,0,0,0,0,0,0,0,0,0,0,0,0,0,0,0,0,0,0,0,0,0,1,0,0,4,0,3,0,0,0,0,0,0,0,0,0,0,0
47,60,100508963642154,Najlepsze Kursy Angielskiego - Dla Ambitnego,51.5275,-0.08931,najlepsze-kursy-angielskiego-dla-ambitnego,0,0,0,0,0,0,0,0,0,0,0,0,0,0,0,0,0,0,0,0,0,1,0,0,0,0,0,0,0,0,0,0,0,0,0,0,0,0,0,0,0,0,0,0,0,0,0,0
48,61,100519481371945,Emy’s Kitchen,51.55515,-0.08975,emys-kitchen,0,0,0,0,0,0,0,0,0,0,0,0,0,0,0,0,0,0,0,0,0,0,0,0,0,0,0,0,0,0,0,0,0,0,0,13,9,0,0,0,0,0,0,0,0,0,0,0
49,62,100520119989599,Dementia UK,51.5134298762,-0.0767755508,dementia-uk,0,0,0,0,0,0,0,0,0,0,0,0,0,0,0,0,0,0,0,0,0,0,2,1,0,0,0,1,0,2,2,1,0,1,0,1,0,0,0,0,0,0,0,0,0,0,0,0
50,64,688361677,O2 Arena Stadium,51.5384497075,-0.0152502023,o2-arena-stadium,0,0,0,0,0,0,0,0,0,0,0,0,0,0,0,0,0,0,0,0,0,0,0,0,0,0,0,0,0,0,0,0,16,21,30,9,0,0,0,0,0,0,0,0,0,0,0,0
51,65,226636648,Nuffield Health,51.545101200000005,-0.22202779999999997,nuffield-health,13,3,3,9,10,8,4,2,6,3,5,4,5,10,13,27,16,28,22,20,16,9,21,10,16,8,27,11,14,1,8,3,3,7,4,5,6,0,0,0,0,0,0,0,0,0,0,0
52,66,100554498082205,Waterloo Hub Hotel,51.496587237,-0.11251007439999999,waterloo-hub-hotel,0,0,0,0,0,0,0,0,0,0,0,0,0,0,0,0,0,0,0,0,0,0,0,0,0,0,0,0,0,0,0,0,0,0,0,2,0,0,0,0,0,0,0,0,0,0,0,0
53,67,100564201358681,World Of Spice,51.5847,-0.0198799,world-of-spice,0,0,0,0,0,0,0,0,0,0,0,0,0,0,0,0,0,0,0,0,0,0,0,0,0,0,0,0,0,0,0,0,0,0,1,0,0,0,0,0,0,0,0,0,0,0,0,0
54,69,1009388552,Annunciation Church,51.6025526567,-0.26053588839999997,annunciation-church,0,0,0,0,1,2,0,0,0,0,0,0,0,0,0,0,0,0,0,0,0,0,0,0,0,0,1,0,0,0,0,0,0,0,0,0,0,0,0,0,0,0,0,0,0,0,0,0
55,70,252291484,Canary Wharf Wetherspoons,51.507551389300005,-0.024470732599999996,canary-wharf-wetherspoons,7,1,9,6,0,0,0,0,0,0,0,0,0,0,0,6,19,22,20,24,32,22,17,24,16,12,4,8,13,4,11,17,15,10,1,7,0,0,0,0,0,0,0,0,0,0,0,0
56,72,1006124646102447,All in a Pickle,51.45727,0.05946,all-in-a-pickle,5,1,3,0,5,5,4,1,3,1,2,8,3,2,4,1,4,1,7,4,17,8,9,11,9,9,4,5,3,8,8,8,8,11,30,5,2,0,0,0,0,0,0,0,0,0,0,0
57,73,100623704626992,Gulen's Ocakbasi Bromley,51.399613897600005,0.0166709344,gulens-ocakbasi-bromley,0,0,0,0,0,0,0,0,0,0,0,0,0,0,0,0,0,0,0,0,0,0,0,0,0,0,0,0,0,0,0,1,6,6,4,5,0,0,0,0,0,0,0,0,0,0,0,0
58,74,1006252062917759,The Collab,51.585384000000005,-0.019798726000000003,the-collab,0,0,0,0,0,0,0,0,0,0,0,0,0,1,0,0,0,0,0,0,0,0,0,0,1,1,41,68,60,104,151,75,49,63,86,95,54,0,0,0,0,0,0,0,0,0,0,0
59,75,100630674644555,The Greek Kitchen,51.5805165336,-0.12403875589999999,the-greek-kitchen,0,0,0,0,0,0,0,0,0,0,0,0,0,0,0,0,0,0,0,0,0,0,0,0,0,0,0,0,0,0,0,0,11,0,0,0,1,0,0,0,0,0,0,0,0,0,0,0
60,76,1006338982754411,Sahara Grill,51.56315120000001,-0.0110036,sahara-grill,14,13,9,3,8,2,2,11,1,7,7,5,9,10,10,12,12,5,7,9,6,6,4,10,5,9,9,11,8,8,6,4,1,6,6,12,2,0,0,0,0,0,0,0,0,0,0,0
61,77,1069871,Kingston Market Place.,51.4095598941,-0.3062256336,kingston-market-place,35,24,54,45,21,45,0,0,7,0,1,1,1,0,0,2,1,13,16,12,72,58,34,11,6,13,11,17,8,5,19,17,38,47,63,77,12,0,0,0,0,0,0,0,0,0,0,0
62,78,1006502179434530,Sidcup Family Golf,51.4314086051,0.0762079558,sidcup-family-golf,0,0,0,3,3,1,3,7,1,3,2,0,2,0,3,1,0,2,2,2,1,2,1,4,9,19,2,1,6,3,3,1,7,1,2,0,1,0,0,0,0,0,0,0,0,0,0,0
63,79,100651074669126,King's Road Park,51.47853,-0.18906989999999999,kings-road-park,0,0,0,0,0,0,0,0,0,0,0,0,0,0,0,0,0,0,0,0,0,0,0,0,0,0,0,0,0,0,0,0,0,0,0,0,2,0,0,0,0,0,0,0,0,0,0,0
64,83,621302555,Mill Hill BJJ,51.593259368599995,-0.2337406864,mill-hill-bjj,10,3,23,8,15,16,11,7,13,8,7,10,18,14,26,9,12,8,9,20,10,16,8,8,5,21,23,13,14,3,11,18,5,10,5,10,6,0,0,0,0,0,0,0,0,0,0,0
65,84,411418395,Charlton Football Club Training Ground,51.4429514464,0.072615313,charlton-football-club-training-ground,0,0,0,0,0,0,1,0,0,0,1,0,0,0,0,0,0,0,1,0,13,11,17,9,24,20,16,15,16,8,15,16,28,28,17,10,3,0,0,0,0,0,0,0,0,0,0,0
66,85,100696474750133,Question Marque Lounge,51.4033285,-0.27356529999999996,question-marque-lounge,0,0,0,0,0,0,0,0,0,0,0,0,0,0,0,0,0,0,0,0,0,0,0,0,0,0,0,0,0,0,0,0,0,0,0,9,13,0,0,0,0,0,0,0,0,0,0,0
67,86,100697614749326,Guftagoo   گفتگو,51.427700200000004,-0.0563467,guftagoo,0,0,0,0,0,0,0,0,0,0,0,0,0,0,0,0,0,0,0,0,0,0,0,0,0,0,0,0,0,0,0,0,0,0,0,1,0,0,0,0,0,0,0,0,0,0,0,0
68,88,100722861339990,Jon Hala Salon,51.502559999999995,-0.019449900000000003,jon-hala-salon,0,0,0,0,0,0,0,0,0,0,0,0,0,0,0,0,0,0,0,0,0,0,0,0,0,0,0,0,0,0,0,0,0,3,0,4,2,0,0,0,0,0,0,0,0,0,0,0
69,90,1007325282679748,London Borough of Haringey,51.5806004039,-0.0826618024,london-borough-of-haringey,0,0,0,1,0,5,5,1,2,0,5,2,9,22,32,6,2,17,43,13,24,13,2,25,29,52,31,14,28,27,14,39,49,20,13,12,10,0,0,0,0,0,0,0,0,0,0,0
70,91,100738201360601,Grill Jam,51.4731373275,-0.0671197116,grill-jam,0,0,0,0,0,0,0,0,0,0,0,0,0,0,0,0,0,0,0,0,0,0,0,0,0,0,0,0,0,0,0,0,0,0,0,10,0,0,0,0,0,0,0,0,0,0,0,0
71,94,1007601529418764,Liban Tapas,51.594629235,0.023901536,liban-tapas,0,0,0,0,0,0,0,0,0,0,0,0,0,0,0,0,0,0,0,0,0,0,1,20,17,12,35,7,5,22,15,15,6,16,6,13,6,0,0,0,0,0,0,0,0,0,0,0
72,96,100789291397075,Car city care Ltd,51.5693,-0.24015,car-city-care-ltd,0,0,0,0,0,0,0,0,0,0,0,0,0,0,0,0,0,0,0,0,0,0,0,0,0,0,0,0,0,0,0,0,0,0,0,5,3,0,0,0,0,0,0,0,0,0,0,0
73,98,236640690,WSET (Wine & Spirit Education Trust),51.502159999999996,-0.08221,wset-wine-spirit-education-trust,0,0,0,61,57,22,23,22,35,35,42,18,53,52,41,51,30,38,20,21,57,56,35,13,45,73,56,52,26,21,20,31,24,28,42,16,23,0,0,0,0,0,0,0,0,0,0,0
74,99,100815793391796,Waterfront Bar Battersea Reach,51.464452255,-0.1857913761,waterfront-bar-battersea-reach,33,21,41,22,38,25,45,26,25,20,7,10,10,11,11,26,43,36,36,13,14,15,7,4,7,16,6,16,58,40,21,10,9,15,7,4,3,0,0,0,0,0,0,0,0,0,0,0
75,101,100851354623018,"Violetta's Hair, Nails and Beauty Salon",51.4643164,-0.26934509999999995,violettas-hair-nails-and-beauty-salon,0,0,0,0,0,0,0,0,0,0,0,0,0,0,0,0,0,0,0,0,0,0,0,0,0,0,0,0,0,0,0,0,2,0,0,17,3,0,0,0,0,0,0,0,0,0,0,0
76,102,1008547349156251,The Village Butty - a floating community hall,51.5598773242,-0.0399327278,the-village-butty-a-floating-community-hall,0,0,1,3,2,9,14,4,1,1,0,0,0,0,6,7,25,1,26,0,1,3,0,1,0,1,0,0,0,0,0,1,2,0,0,0,0,0,0,0,0,0,0,0,0,0,0,0
77,103,100860003739914,Honour Indeed Tattoo,51.4270418,-0.13141070000000002,honour-indeed-tattoo,0,0,0,0,0,0,0,0,0,0,1,0,0,0,0,0,0,0,0,15,31,14,28,24,41,36,34,31,35,29,44,39,44,37,21,22,2,0,0,0,0,0,0,0,0,0,0,0
78,104,100876680507426,Greek Sundays,51.591429999999995,-0.24908000000000002,greek-sundays,0,0,0,0,0,0,0,0,0,0,0,0,1,0,0,0,0,0,0,0,0,0,0,1,0,0,0,0,0,0,0,0,0,0,0,0,0,0,0,0,0,0,0,0,0,0,0,0
79,105,100881494720680,Monika Avon UK,51.563598,0.027059899999999998,monika-avon-uk,0,0,0,0,0,0,0,0,0,0,0,0,0,0,0,0,0,0,0,0,0,0,0,0,0,0,0,0,0,0,0,0,0,0,2,0,0,0,0,0,0,0,0,0,0,0,0,0
80,106,100892571330129,Cafe Giardino,51.404533273599995,0.0171704746,cafe-giardino,0,0,0,0,0,0,0,0,0,0,0,0,0,0,0,0,0,0,0,0,0,0,0,0,0,0,0,0,0,0,0,0,0,0,0,2,1,0,0,0,0,0,0,0,0,0,0,0
81,107,100895021329723,Hans & Gretel UK,51.54234,-0.14728,hans-gretel-uk,0,0,0,0,0,0,0,0,0,0,0,0,0,0,0,0,0,0,0,0,0,0,0,0,0,0,0,0,0,0,0,0,0,10,60,57,25,0,0,0,0,0,0,0,0,0,0,0
82,108,100898091334844,Kisses from nonna,51.53147,-0.03792,kisses-from-nonna,0,0,0,0,0,0,0,0,0,0,0,0,0,0,0,0,0,0,0,0,0,0,0,0,0,0,0,0,0,0,0,0,0,1,2,15,7,0,0,0,0,0,0,0,0,0,0,0
83,109,235094699,El Chicos Streatham,51.43645,-0.12809,el-chicos-streatham,5,7,8,5,11,19,13,13,16,13,8,11,7,9,9,7,12,10,3,12,8,21,7,6,8,6,7,5,3,8,4,9,8,7,5,8,5,0,0,0,0,0,0,0,0,0,0,0
84,112,100920291345345,Oh my Dog,51.523340000000005,-0.25356,oh-my-dog,0,0,0,0,0,0,0,0,0,0,0,0,0,0,0,0,0,0,0,0,0,0,0,0,0,0,0,0,0,0,0,0,0,1,0,0,0,0,0,0,0,0,0,0,0,0,0,0
85,113,904796472,Ariwa sounds,51.398083628,-0.091211881,ariwa-sounds,0,0,0,0,0,1,2,4,0,4,0,1,2,0,4,0,2,10,8,8,3,3,2,3,6,4,2,2,6,0,3,0,4,0,2,5,1,0,0,0,0,0,0,0,0,0,0,0
86,114,736090278,"West Putney, London",51.46173501,-0.22827287,west-putney-london,12,11,39,20,65,128,201,135,117,145,90,159,129,75,28,35,37,33,84,121,157,194,162,254,192,185,145,153,75,113,113,83,64,147,150,167,55,0,0,0,0,0,0,0,0,0,0,0
87,116,100952574624755,Avocado Garden,51.46695,0.00747,avocado-garden,0,0,0,0,0,0,0,0,0,0,0,0,0,0,0,0,0,0,0,0,0,0,0,0,0,0,0,0,0,0,0,0,0,22,18,12,8,0,0,0,0,0,0,0,0,0,0,0
88,117,1017054039,Style mantra,51.555370688400004,0.0717685439,style-mantra,3,0,0,5,0,1,0,0,0,0,5,2,1,1,1,3,2,2,1,0,4,3,0,0,0,0,0,0,0,0,0,0,0,0,0,0,0,0,0,0,0,0,0,0,0,0,0,0
89,118,239855,Her Majesty's Theatre,51.508303875799996,-0.13175950449999999,her-majestys-theatre,605,609,572,478,515,480,518,535,479,528,374,469,382,315,345,387,382,388,474,502,498,492,377,418,507,452,491,368,427,443,451,518,559,670,538,471,246,0,0,0,0,0,0,0,0,0,0,0
90,119,246536762,Kingsland Hotel,51.584689327,-0.282525201,kingsland-hotel,1,2,3,0,0,0,1,0,0,0,2,1,1,0,0,1,0,0,3,1,2,0,0,1,0,1,0,1,0,0,1,6,3,5,0,0,0,0,0,0,0,0,0,0,0,0,0,0
91,121,1020316119,Marino's CAFE Barkingside,51.5891328091,0.0813952528,marinos-cafe-barkingside,0,0,1,0,0,0,0,0,0,0,0,0,0,0,0,0,0,0,0,0,0,0,0,0,0,0,0,0,0,0,0,0,0,0,0,1,0,0,0,0,0,0,0,0,0,0,0,0
92,122,1024902625,Tesco Superstore,51.57183380399999,0.0138361785,tesco-superstore,3,4,3,7,2,0,0,3,2,1,2,0,4,1,0,2,0,1,2,1,0,3,1,1,1,0,0,3,0,1,0,0,2,3,1,1,1,0,0,0,0,0,0,0,0,0,0,0
93,124,1010099719136517,Utility Warehouse NHQ,51.59668,-0.26369000000000004,utility-warehouse-nhq,0,0,0,0,0,0,0,0,0,0,2,0,0,0,1,0,0,0,1,0,0,2,0,0,0,0,0,0,0,0,0,0,1,0,0,1,0,0,0,0,0,0,0,0,0,0,0,0
94,125,1010152045694252,Bugle Horn,51.4817007846,0.0364930981,bugle-horn,0,0,0,0,0,0,0,0,0,0,0,0,0,0,0,0,0,0,0,0,0,0,0,0,0,0,0,0,0,0,0,0,1,3,0,0,0,0,0,0,0,0,0,0,0,0,0,0
95,126,14128488,Marcus Garvey library,51.587969307,-0.0736958045,marcus-garvey-library,0,0,0,0,2,2,3,0,1,2,0,0,1,1,0,1,0,0,0,1,0,0,1,0,1,2,0,0,1,0,1,2,2,12,3,1,1,0,0,0,0,0,0,0,0,0,0,0
96,127,629432289,Goddard Veterinary Group,51.574767,0.0185571,goddard-veterinary-group,0,1,2,1,0,1,0,0,0,0,0,0,0,0,0,0,0,0,0,0,1,4,1,2,3,1,4,2,2,0,1,0,2,2,4,1,1,0,0,0,0,0,0,0,0,0,0,0
97,128,1010475179091195,Eclair UK London by Sylwia Brzeska,51.53886,0.0044,eclair-uk-london-by-sylwia-brzeska,0,0,0,0,0,0,0,0,0,0,0,0,0,6,11,20,16,32,20,3,17,38,44,84,59,33,44,49,58,29,20,4,1,1,5,3,2,0,0,0,0,0,0,0,0,0,0,0
98,130,101055347974609,Exale Brewing & Taproom E17,51.59320075189999,-0.0415591534,exale-brewing-taproom-e17,0,0,0,0,0,0,0,0,0,0,0,0,0,0,0,0,0,0,0,0,0,0,0,0,0,0,0,0,0,0,0,0,0,8,25,59,23,0,0,0,0,0,0,0,0,0,0,0
99,132,101081391281758,Plab Kings by Dr Hardik,51.51548,-0.09262999999999999,plab-kings-by-dr-hardik,0,0,0,0,0,0,0,0,0,0,0,0,0,0,0,0,0,0,0,0,0,0,0,0,0,0,0,0,0,0,0,0,0,0,1,0,0,0,0,0,0,0,0,0,0,0,0,0
100,133,444296107,"Shree Kutch Satsang Swaminarayan Temple - Kenton, Harrow",51.587810687600005,-0.3016214278,shree-kutch-satsang-swaminarayan-temple-kenton-harrow,0,0,0,0,0,0,0,0,2,3,1,2,3,4,8,2,0,4,1,1,4,3,2,1,2,2,2,0,1,0,3,1,3,2,2,3,1,0,0,0,0,0,0,0,0,0,0,0
101,134,418581,Citygate Church - Beckenham,51.407629738999994,-0.0322795815,citygate-church-beckenham,12,11,10,15,7,5,13,2,20,12,7,7,16,5,8,12,2,16,6,0,19,11,8,17,4,6,5,11,20,17,27,7,12,24,19,21,10,0,0,0,0,0,0,0,0,0,0,0
102,136,101097637984412,TamViet Restaurant,51.484902399999996,0.0033383,tamviet-restaurant,0,0,0,0,0,0,0,0,0,0,0,0,0,0,0,0,0,0,0,0,0,0,0,0,0,0,0,0,0,0,0,0,0,0,1,0,0,0,0,0,0,0,0,0,0,0,0,0
103,137,1011002872349026,Escape,51.5063136,-0.23339339999999997,escape,6,2,4,9,3,4,9,5,2,6,10,9,11,11,3,7,7,6,4,12,9,15,4,5,3,3,11,7,6,8,6,9,5,3,4,2,1,0,0,0,0,0,0,0,0,0,0,0
104,138,101106581275404,Bodrum Lounge,51.5294362,-0.2702591,bodrum-lounge,0,0,0,0,0,0,0,0,0,0,0,0,0,0,0,0,0,0,0,0,0,0,0,0,0,0,0,0,0,0,0,8,22,15,40,13,3,0,0,0,0,0,0,0,0,0,0,0
105,139,101112027974786,Barge East,51.5420513805,-0.021028518700000002,barge-east,0,0,0,0,0,0,0,0,0,0,0,0,0,0,0,0,0,0,0,0,0,0,0,0,0,0,0,0,0,0,0,0,0,20,32,43,18,0,0,0,0,0,0,0,0,0,0,0
106,140,1616025,NSPCC,51.5233528,-0.080193,nspcc,5,4,6,4,6,0,3,6,1,5,9,2,4,3,5,2,3,3,2,1,4,4,2,4,14,1,1,1,1,2,1,2,3,4,4,5,1,0,0,0,0,0,0,0,0,0,0,0
107,141,1718948,Tito's Peruvian Restaurant,51.4707579379,-0.1239717007,titos-peruvian-restaurant,11,8,9,10,9,3,12,6,8,15,9,8,7,4,9,11,5,8,9,8,5,4,7,5,2,0,4,4,0,10,7,3,2,2,1,6,2,0,0,0,0,0,0,0,0,0,0,0
108,142,101163974641918,Space289,51.5318293937,-0.0569212805,space289,0,0,0,0,0,0,0,0,0,0,0,0,0,0,0,0,0,0,0,0,0,0,0,0,0,0,0,0,0,0,0,0,0,0,9,21,10,0,0,0,0,0,0,0,0,0,0,0
109,143,101176854675144,London New Year’s Eve Fireworks,51.39533,-0.06795,london-new-years-eve-fireworks,0,0,0,0,0,0,0,0,0,0,0,0,0,0,0,0,0,0,0,0,0,0,0,0,0,0,0,0,0,0,0,0,0,0,0,1,9,0,0,0,0,0,0,0,0,0,0,0
110,145,101202831237045,Oru Space,51.459911580299995,-0.0753995776,oru-space,0,0,0,0,0,0,0,0,0,0,0,0,0,0,0,0,0,0,0,0,0,0,0,0,0,0,0,0,0,0,0,0,0,4,0,7,0,0,0,0,0,0,0,0,0,0,0,0
111,146,101210757966149,Doña,51.55938870000001,-0.0739135,dona,0,0,0,0,0,0,0,0,0,0,0,0,0,0,0,0,0,0,0,0,0,0,0,0,0,0,0,0,0,0,0,0,0,1,46,36,24,0,0,0,0,0,0,0,0,0,0,0
112,148,252756887,New wave Tattoo London Lal Hardy,51.6043741,-0.14381570000000002,new-wave-tattoo-london-lal-hardy,18,19,17,24,9,11,17,15,15,16,19,24,9,11,15,20,14,10,10,25,18,21,17,20,29,10,19,14,20,9,12,8,9,16,6,9,9,0,0,0,0,0,0,0,0,0,0,0
113,149,40484,Roundhouse,51.5434647847,-0.1517179325,roundhouse,0,0,0,0,0,0,0,0,0,0,0,0,0,0,0,0,0,0,0,0,0,0,0,0,0,0,597,1020,1887,501,494,410,574,1593,1688,1387,167,0,0,0,0,0,0,0,0,0,0,0
114,150,1012386958822167,the Bike Club,51.5010893138,-0.09160280230000001,the-bike-club,1,0,0,0,0,0,0,0,0,0,0,1,0,1,1,2,1,0,1,1,0,0,0,0,0,0,3,0,1,2,0,0,0,2,0,0,0,0,0,0,0,0,0,0,0,0,0,0
115,152,1012513085549185,Costa Coffee,51.556654450100005,-0.21561741829999997,costa-coffee,0,0,0,0,0,2,2,4,1,0,1,0,0,3,2,0,1,0,0,0,2,3,1,2,1,1,0,1,2,0,0,2,2,4,1,1,0,0,0,0,0,0,0,0,0,0,0,0
116,153,101257037965315,C.S.G Barbers,51.45857,0.00564,csg-barbers,0,0,0,0,0,0,0,0,0,0,0,0,0,0,0,0,0,0,0,0,0,0,0,0,0,0,0,0,0,0,0,0,0,11,16,4,4,0,0,0,0,0,0,0,0,0,0,0
117,154,101259481355858,KOTCH - Italian Stonebaked Pizza & Bar -,51.54678,0.006,kotch-italian-stonebaked-pizza-bar-,0,0,0,0,0,0,0,0,0,0,0,0,0,0,0,0,0,0,0,0,0,0,0,0,0,0,0,0,0,0,0,0,0,0,0,6,2,0,0,0,0,0,0,0,0,0,0,0
118,155,101264361259368,Vitality Barber,51.411961910600006,-0.310921669,vitality-barber,0,0,0,0,0,0,0,0,0,0,0,0,0,0,0,0,0,0,0,0,0,0,0,0,0,0,0,0,0,0,0,0,1,5,1,5,0,0,0,0,0,0,0,0,0,0,0,0
119,156,785039930,"Lavender Fields, London",51.40716695,-0.16669585,lavender-fields-london,1,3,5,3,3,14,56,58,43,28,14,17,16,5,14,18,27,24,147,100,47,29,14,19,14,12,11,21,5,16,50,41,23,24,26,11,3,0,0,0,0,0,0,0,0,0,0,0
120,157,101282674592268,Combat Conditioning Tooting,51.4315123916,-0.1466953207,combat-conditioning-tooting,0,0,0,0,0,0,0,0,0,0,0,0,0,0,0,0,0,0,0,0,0,0,0,0,0,0,0,0,0,0,0,0,4,0,0,0,0,0,0,0,0,0,0,0,0,0,0,0
121,159,1012994525436600,All Bar One,51.42245,-0.20865,all-bar-one,12,15,16,14,15,9,12,9,7,15,6,7,7,11,13,7,3,9,6,8,11,5,6,5,5,7,10,10,14,10,11,9,9,7,10,9,5,0,0,0,0,0,0,0,0,0,0,0
122,160,101314524589391,Saatchi Gallery,51.490764876499995,-0.15930639900000002,saatchi-gallery,1,1,0,0,0,1,0,2,0,0,0,0,0,0,0,1,0,0,0,0,0,2,1,0,1,1,0,3,0,1,0,5,633,511,1245,1,2,0,0,0,0,0,0,0,0,0,0,0
123,161,1013228355446289,Sunborn Luxury Yacht,51.507267830100005,0.0242555852,sunborn-luxury-yacht,0,0,0,0,0,0,0,0,0,0,0,0,0,0,0,0,0,0,0,0,0,0,0,0,0,0,0,0,3,0,0,5,43,19,3,0,0,0,0,0,0,0,0,0,0,0,0,0
124,162,761943709,Reena Parmar ProArtist,51.5719218916,-0.2855587006,reena-parmar-proartist,0,0,0,0,0,1,1,0,0,0,0,1,0,0,0,0,0,0,0,0,0,0,0,0,0,1,0,0,0,0,0,0,0,0,0,0,0,0,0,0,0,0,0,0,0,0,0,0
125,163,101348277106633,Chelsea Champions,51.6006397,0.017079,chelsea-champions,0,0,0,0,1,0,0,0,0,0,0,0,0,0,0,0,0,0,0,0,0,0,0,0,0,0,0,0,1,0,0,0,0,0,0,0,0,0,0,0,0,0,0,0,0,0,0,0
126,165,101364311366237,"Winterfest, Wembley Park",51.55643,-0.28315500000000005,winterfest-wembley-park,0,0,0,0,0,0,0,0,0,0,0,0,0,0,0,0,0,0,0,0,0,0,0,0,0,0,0,0,0,0,0,0,0,0,0,33,41,0,0,0,0,0,0,0,0,0,0,0
127,166,1033422228,Amelia's Vegan Kitchen,51.547079700000005,-0.2728252,amelias-vegan-kitchen,2,5,3,0,1,1,0,0,0,0,0,0,0,0,0,0,0,0,0,0,0,1,0,0,0,0,0,0,0,1,0,0,0,0,0,0,0,0,0,0,0,0,0,0,0,0,0,0
128,167,101394531298911,Stronger Men,51.48409,0.0009599999999999999,stronger-men,0,0,0,0,0,0,0,0,0,0,0,0,0,0,0,0,0,0,0,0,0,0,0,0,0,0,0,0,0,0,0,0,0,0,1,0,0,0,0,0,0,0,0,0,0,0,0,0
129,168,101396496996964,Double Tree by Hilton,51.5074606,0.0384156,double-tree-by-hilton,2,22,24,24,11,26,33,20,21,39,28,18,12,23,36,34,25,31,11,66,7,0,0,0,0,0,0,0,0,0,0,0,0,0,0,0,0,0,0,0,0,0,0,0,0,0,0,0
130,169,242253913,The Maynard Arms,51.5817369,-0.1262354,the-maynard-arms,35,23,37,37,29,31,33,32,24,22,24,25,21,22,23,23,40,43,43,31,24,30,29,38,20,15,25,29,17,22,8,10,11,13,22,19,7,0,0,0,0,0,0,0,0,0,0,0
131,170,217142510,Arcola Theatre,51.547065148,-0.07503855599999999,arcola-theatre,115,129,79,79,102,72,103,151,96,67,91,99,114,124,132,163,138,135,131,155,66,144,116,56,131,185,172,197,124,90,163,155,93,82,58,43,20,0,0,0,0,0,0,0,0,0,0,0
132,171,506977225,Ronald McDonald House Charities United Kingdom,51.58818,-0.16472,ronald-mcdonald-house-charities-united-kingdom,1,0,0,0,0,0,0,0,0,0,0,0,0,0,0,0,0,0,0,0,0,0,0,0,0,0,0,0,0,0,0,0,1,0,0,0,0,0,0,0,0,0,0,0,0,0,0,0
133,172,101431458008330,Roots & Shoots,51.41427,0.02126,roots-shoots,0,0,0,0,0,0,0,0,0,0,0,0,0,0,0,0,0,0,0,0,0,0,0,0,0,0,0,0,0,0,0,0,0,0,0,2,1,0,0,0,0,0,0,0,0,0,0,0
134,174,101457483727803,Borneo Cafe & Bakery,51.6092316,-0.1102433,borneo-cafe-bakery,0,0,0,0,0,0,0,0,0,0,0,1,1,1,1,1,1,2,0,0,0,1,1,12,1,4,0,1,0,2,3,1,0,0,1,0,0,0,0,0,0,0,0,0,0,0,0,0
135,175,101466384543122,Relationship & marriage tips.counselling,51.50643,-0.12721,relationship-marriage-tipscounselling,0,0,0,0,0,0,0,0,0,0,0,0,0,0,0,0,0,0,0,0,0,0,0,0,0,0,0,0,0,0,0,1,0,0,0,0,0,0,0,0,0,0,0,0,0,0,0,0
136,176,101467921280708,The Black Moon Studio,51.5704,-0.11425999999999999,the-black-moon-studio,0,0,0,0,0,0,0,0,0,0,0,0,0,0,0,0,0,0,0,0,0,0,0,0,0,0,0,0,0,0,0,0,0,2,4,5,1,0,0,0,0,0,0,0,0,0,0,0
137,177,3191392,Upstairs at the Ritzy,51.461124012700004,-0.1153683036,upstairs-at-the-ritzy,127,97,24,0,0,1,0,0,0,1,0,0,0,1,0,1,25,86,121,118,195,136,81,126,206,125,168,93,114,98,107,103,97,133,14,0,22,0,0,0,0,0,0,0,0,0,0,0
138,178,234874852,The Norwegian School in London (Den norske skolen i London),51.4164763081,-0.2259668727,the-norwegian-school-in-london-den-norske-skolen-i-london,0,0,3,0,3,1,0,1,0,1,0,1,0,1,0,1,0,1,0,0,0,0,0,0,0,0,0,0,5,0,0,0,0,2,0,0,0,0,0,0,0,0,0,0,0,0,0,0
139,179,10150099665565144,China Presentations,51.6104483984,-0.2468295412,china-presentations,0,0,0,0,0,0,0,0,0,0,2,0,0,0,0,4,3,2,2,1,1,1,3,2,1,3,5,2,0,4,1,1,0,0,2,3,1,0,0,0,0,0,0,0,0,0,0,0
140,180,1018561338,Cargo Records UK,51.47387076,-0.20260774,cargo-records-uk,0,1,0,0,0,0,0,0,0,0,0,0,0,0,0,0,0,7,2,1,5,6,9,4,7,2,6,2,1,2,4,3,1,3,5,2,0,0,0,0,0,0,0,0,0,0,0,0
141,181,15026246,Warren House,51.42391243310001,-0.271833935,warren-house,23,29,36,41,50,80,56,56,60,24,25,36,31,29,30,66,31,27,29,28,38,26,8,39,15,13,32,30,35,55,40,16,67,25,35,16,19,0,0,0,0,0,0,0,0,0,0,0
142,182,224767879,College of North West London - Official Page,51.5517320283,-0.2436777021,college-of-north-west-london-official-page,8,7,14,3,6,4,3,1,8,5,6,7,5,4,9,3,9,11,2,2,6,2,8,9,4,4,3,0,5,1,0,1,7,4,1,1,0,0,0,0,0,0,0,0,0,0,0,0
143,183,101506881210048,Dahomey.Ink,51.538062100000005,-0.0581606,dahomeyink,0,0,0,0,0,0,0,0,0,0,0,0,0,0,0,0,0,0,0,0,0,0,0,0,0,0,0,0,0,0,0,1,0,1,0,0,1,0,0,0,0,0,0,0,0,0,0,0
144,185,101519747983519,Imperial Cars,51.5366335978,-0.28453501010000004,imperial-cars,0,0,0,0,0,0,0,0,0,0,0,0,0,0,0,0,0,0,0,0,0,0,0,0,0,0,0,0,0,0,0,0,0,0,0,1,0,0,0,0,0,0,0,0,0,0,0,0
145,186,101526381259891,Franzos Walthamstow,51.58014,-0.0329399,franzos-walthamstow,0,0,0,0,0,0,0,0,0,0,0,0,0,0,0,0,0,0,0,0,0,0,0,0,0,0,0,0,0,0,0,0,0,0,0,0,1,0,0,0,0,0,0,0,0,0,0,0
146,187,1015331008511031,Crafts U Make,51.4485207,-0.21911,crafts-u-make,0,0,0,0,0,0,0,0,0,0,0,0,0,0,0,0,0,0,0,0,0,2,4,3,0,0,4,0,2,0,0,2,0,1,2,0,0,0,0,0,0,0,0,0,0,0,0,0
147,190,101609864643293,Blossomandbloomsalon,51.6075009,0.033715300000000004,blossomandbloomsalon,0,0,0,0,0,0,0,0,0,0,0,0,0,0,0,0,0,0,0,0,0,0,0,0,0,0,0,0,0,0,0,0,0,0,0,34,11,0,0,0,0,0,0,0,0,0,0,0
148,191,264588931,London School of Massage,51.5470864122,-0.11831254990000001,london-school-of-massage,0,2,3,8,2,1,6,2,12,11,3,4,6,6,5,4,5,2,7,1,6,5,4,4,4,10,12,7,10,6,5,5,9,11,10,9,3,0,0,0,0,0,0,0,0,0,0,0
149,193,500876889,Gillian Roberts Bridal Boutique,51.4517578251,0.0522372843,gillian-roberts-bridal-boutique,0,0,1,0,3,0,0,0,0,0,0,0,0,12,4,0,1,0,0,0,0,0,1,0,1,0,1,0,0,1,0,3,3,3,4,0,1,0,0,0,0,0,0,0,0,0,0,0
150,194,1016348491860945,St John's Wood,51.533635100000005,-0.1718676,st-johns-wood,1,0,0,0,1,0,0,0,3,2,1,2,1,2,1,1,2,10,68,122,98,10,27,146,156,196,265,191,77,51,21,45,143,26,13,9,4,0,0,0,0,0,0,0,0,0,0,0
151,195,1016435085089481,Chase Hattan Watches,51.49866,-0.02059,chase-hattan-watches,0,0,0,0,0,0,0,0,0,0,0,25,19,22,28,13,14,31,14,3,8,22,7,14,2,5,13,6,7,0,0,0,0,0,0,0,0,0,0,0,0,0,0,0,0,0,0,0
152,196,101682507919361,Copper Chimney Westfield,51.506116478,-0.2190478284,copper-chimney-westfield,0,0,0,0,0,0,0,0,0,0,0,0,0,0,0,0,0,0,0,0,0,0,0,0,0,0,0,0,0,0,0,0,0,11,35,41,13,0,0,0,0,0,0,0,0,0,0,0
153,197,390891,Barking Learning Centre,51.536190000000005,0.07947,barking-learning-centre,3,3,4,6,3,8,15,12,8,6,8,4,2,8,2,3,1,1,21,2,3,6,1,5,2,5,6,5,0,3,11,2,6,7,2,9,4,0,0,0,0,0,0,0,0,0,0,0
154,198,250828391,Edgware Community Hospital,51.6058246535,-0.2721202844,edgware-community-hospital,10,7,8,6,4,2,4,7,6,7,3,0,4,1,0,2,4,2,3,2,2,4,2,8,5,9,1,4,0,4,1,2,4,4,3,6,2,0,0,0,0,0,0,0,0,0,0,0
155,199,101690934608540,Jack.massage.rehab,51.4077142509,-0.3019173811,jackmassagerehab,0,0,0,0,0,0,0,0,0,0,0,0,0,0,0,0,0,0,0,0,0,0,0,0,0,0,0,0,0,0,0,0,0,0,1,0,0,0,0,0,0,0,0,0,0,0,0,0
156,200,604198647,Royal Indian Cuisine,51.4119484,0.0748739,royal-indian-cuisine,0,0,0,0,0,0,0,0,0,0,0,0,0,1,0,0,0,0,0,0,0,0,0,0,0,0,0,0,0,0,0,0,0,0,0,0,0,0,0,0,0,0,0,0,0,0,0,0
157,201,260790719,Wicca Moon,51.4525735,0.052047300000000005,wicca-moon,2,0,0,1,1,0,0,2,0,0,2,0,2,1,3,0,0,1,1,1,0,3,1,0,4,4,5,0,2,0,0,1,0,2,2,0,0,0,0,0,0,0,0,0,0,0,0,0
158,202,1639878,Menzies Prince Regent,51.6063339937,0.058726119699999996,menzies-prince-regent,1,0,0,0,0,1,0,0,0,0,0,0,1,0,0,0,0,1,1,2,4,1,0,1,0,0,1,1,4,1,0,2,0,0,0,0,1,0,0,0,0,0,0,0,0,0,0,0
159,203,101701201253787,Jack and Beyond,51.476926899999995,-0.2031272,jack-and-beyond,0,0,0,0,0,0,0,0,0,0,0,0,0,0,0,0,0,0,0,0,0,0,0,0,0,0,0,0,0,0,0,0,0,0,16,24,5,0,0,0,0,0,0,0,0,0,0,0
160,204,1017030748408419,Beauty Sculpture,51.4520943,0.04395,beauty-sculpture,1,2,0,0,0,4,5,2,1,1,0,0,0,0,0,0,1,0,0,0,0,0,0,0,0,0,0,0,0,0,0,0,0,0,0,0,2,0,0,0,0,0,0,0,0,0,0,0
161,205,101710671265711,Rovigo Pizza Wimbledon,51.4270273,-0.2014203,rovigo-pizza-wimbledon,0,0,0,0,0,0,0,0,0,0,0,0,0,0,0,0,0,0,0,0,0,0,0,0,0,0,0,0,0,0,0,0,0,0,0,17,0,0,0,0,0,0,0,0,0,0,0,0
162,206,101713877854569,BoT.,51.5645273273,-0.121283615,bot,0,0,0,0,0,0,0,0,0,0,0,0,0,0,0,0,0,0,0,0,0,0,0,0,0,0,0,0,0,0,0,0,0,0,0,1,0,0,0,0,0,0,0,0,0,0,0,0
163,207,1787101,Oslo Court Restaurant,51.533351227299995,-0.1671464763,oslo-court-restaurant,15,8,22,11,2,18,20,3,7,9,7,12,4,5,8,19,8,4,14,1,15,18,14,14,16,15,15,9,11,10,15,4,11,1,8,13,15,0,0,0,0,0,0,0,0,0,0,0
164,208,101718644546075,Royal Lancaster Hotel,51.5122599699,-0.1751104036,royal-lancaster-hotel,0,0,0,0,0,0,0,0,0,0,0,0,0,0,0,0,0,0,0,0,0,0,0,0,0,0,0,0,0,0,0,0,102,439,2,2,0,0,0,0,0,0,0,0,0,0,0,0
165,209,101723561235130,Grandma’s treatsld,51.5672799,-0.23961999999999997,grandmas-treatsld,0,0,0,0,0,0,0,0,0,0,0,0,0,0,0,0,0,0,0,0,0,0,0,0,0,0,0,0,0,0,0,0,0,0,1,0,0,0,0,0,0,0,0,0,0,0,0,0
166,210,4039427,The Lion And Unicorn,51.54807,-0.13913,the-lion-and-unicorn,11,18,23,26,32,37,46,79,56,46,56,31,13,17,29,45,61,49,49,107,20,43,29,52,37,43,64,87,100,72,38,94,76,47,35,25,10,0,0,0,0,0,0,0,0,0,0,0
167,211,1017350728342379,For Dogs' Sake,51.43822,-0.18681,for-dogs-sake,0,0,0,0,1,0,0,0,0,0,0,0,1,0,1,0,0,0,0,0,0,1,0,0,1,0,0,0,0,0,0,0,0,0,0,0,0,0,0,0,0,0,0,0,0,0,0,0
168,212,1921255,Noodle Time,51.4809637377,-0.0091451376,noodle-time,2,3,1,3,3,4,6,1,3,2,1,1,3,4,4,5,4,1,0,0,1,3,1,2,4,3,0,3,3,1,2,5,3,4,4,3,3,0,0,0,0,0,0,0,0,0,0,0
169,213,1017389911739883,BBC Uganda,51.466029999999996,-0.14179,bbc-uganda,0,0,0,0,0,0,0,0,0,0,0,0,0,0,0,0,0,0,1,4,41,1,1,0,0,1,0,0,0,0,0,0,0,0,0,0,0,0,0,0,0,0,0,0,0,0,0,0
170,214,4946901,Waltham Forest Pool & Track,51.5932216691,-0.014417786100000001,waltham-forest-pool-track,5,9,3,4,2,17,6,3,1,14,6,4,17,12,9,29,33,25,15,46,42,16,10,3,3,1,0,0,3,5,2,1,0,0,0,0,0,0,0,0,0,0,0,0,0,0,0,0
171,216,4911315,Stanley Halls,51.4002209512,-0.0753523802,stanley-halls,18,33,22,9,22,15,32,19,57,56,42,30,17,29,34,38,40,22,36,12,25,53,18,56,25,27,24,16,25,40,27,38,63,63,83,79,22,0,0,0,0,0,0,0,0,0,0,0
172,217,101191267,Beckenham Bookshop,51.4094550066,-0.025098773799999998,beckenham-bookshop,0,1,0,0,2,1,0,0,0,0,0,0,0,0,0,0,0,0,0,0,0,1,0,0,1,0,0,0,0,0,1,0,1,0,0,0,0,0,0,0,0,0,0,0,0,0,0,0
173,218,230810213,Fullwell Cross Leisure Centre,51.592477512399995,0.0844695727,fullwell-cross-leisure-centre,7,13,8,2,5,1,3,3,11,7,1,5,3,4,16,7,2,7,3,2,4,4,4,8,2,3,0,3,1,3,4,5,4,2,5,11,3,0,0,0,0,0,0,0,0,0,0,0
174,219,1212459,Nando's - Kingston,51.40701,-0.30773,nandos-kingston,3,1,6,7,12,13,5,4,5,7,2,4,10,5,4,3,8,6,4,3,8,3,4,2,6,3,8,4,3,4,6,9,9,3,6,4,1,0,0,0,0,0,0,0,0,0,0,0
175,220,831037,Gold Mine,51.5133736,-0.1874564,gold-mine,65,61,54,84,55,49,66,63,58,65,51,65,61,87,70,77,52,52,60,44,64,77,53,68,84,90,62,61,73,55,57,63,57,89,71,68,38,0,0,0,0,0,0,0,0,0,0,0
176,221,363725797,Yop City,51.47334,-0.0716,yop-city,0,0,0,0,0,1,3,0,0,0,0,0,0,0,0,0,0,0,0,2,2,0,0,0,0,2,0,2,2,0,1,0,0,0,1,0,1,0,0,0,0,0,0,0,0,0,0,0
177,222,101754656912561,Thai Moom,51.38974,0.07135,thai-moom,0,0,0,0,0,0,2,0,1,0,1,0,1,0,2,1,0,2,8,1,0,0,0,0,0,0,0,0,0,2,2,0,0,2,1,0,0,0,0,0,0,0,0,0,0,0,0,0
178,223,101756295010,The Kennel Club UK,51.506656789,-0.1445392619,the-kennel-club-uk,0,0,0,0,0,0,0,0,3,7,7,4,5,9,12,18,20,8,10,13,12,25,28,14,15,17,9,8,17,19,16,8,20,20,8,6,4,0,0,0,0,0,0,0,0,0,0,0
179,224,101756447971801,Dilpasand Restaurant,51.514959999999995,-0.0636,dilpasand-restaurant,0,0,0,0,0,0,0,0,0,0,0,0,0,0,0,0,0,0,0,0,0,0,0,0,0,0,0,0,0,0,0,0,0,0,0,16,9,0,0,0,0,0,0,0,0,0,0,0
180,225,333809136,Mountain View,51.41791,0.06817999999999999,mountain-view,0,1,0,0,0,0,0,0,0,0,0,0,0,0,0,0,0,0,0,0,0,0,1,1,1,1,2,2,2,1,0,0,0,1,0,0,0,0,0,0,0,0,0,0,0,0,0,0
181,226,101791929867805,F1 Racing,51.46074,-0.3028,f1-racing,0,0,0,0,0,0,1,0,0,0,0,0,0,0,2,0,1,1,0,3,3,2,1,2,0,1,1,1,2,1,0,0,1,1,0,1,0,0,0,0,0,0,0,0,0,0,0,0
182,227,101795817978340,Green Parrot Lounge,51.45282,-0.10245,green-parrot-lounge,0,0,0,0,0,0,0,0,0,0,0,0,0,0,0,0,0,0,0,0,0,0,0,0,0,0,0,0,0,0,0,0,0,0,0,3,2,0,0,0,0,0,0,0,0,0,0,0
183,228,101801254577702,Abraço,51.5785713,-0.09873889999999999,abraco,0,0,0,0,0,0,0,0,0,0,0,0,0,0,0,0,0,0,0,0,0,0,0,0,0,0,0,0,0,0,0,0,0,20,35,40,23,0,0,0,0,0,0,0,0,0,0,0
184,229,101821807986375,Hair By Pauly B,51.4760538581,-0.10072188730000001,hair-by-pauly-b,0,0,0,0,0,0,0,0,0,0,0,0,0,0,0,0,0,0,0,0,0,0,0,0,0,0,0,0,0,0,0,0,0,0,0,0,7,0,0,0,0,0,0,0,0,0,0,0
185,230,101841457951936,FCG Balham,51.4461678,-0.1495765,fcg-balham,0,0,0,0,0,0,0,0,0,0,0,0,0,0,0,0,0,0,0,0,0,0,0,0,0,0,0,0,0,0,0,0,0,2,8,5,3,0,0,0,0,0,0,0,0,0,0,0
186,232,1018552198278291,Belvoir Bromley Property Specialists Sales and Lettings,51.40271,-0.03678,belvoir-bromley-property-specialists-sales-and-lettings,0,0,0,0,0,0,0,0,0,0,0,1,0,0,0,0,0,0,0,2,1,1,0,0,0,1,0,0,0,4,6,10,14,25,21,10,2,0,0,0,0,0,0,0,0,0,0,0
187,233,101855667233707,Youth First,51.4296648558,-0.0205135345,youth-first,0,0,0,0,0,0,0,0,0,0,0,0,0,0,0,0,0,0,0,0,0,0,3,2,4,0,0,0,0,0,0,2,1,0,0,0,1,0,0,0,0,0,0,0,0,0,0,0
188,235,101858161224819,Crystal Palace Car Boot Sale,51.4205757149,-0.0719699513,crystal-palace-car-boot-sale,0,0,0,0,0,0,0,0,0,0,0,0,0,0,0,0,0,0,0,0,0,0,0,0,0,0,0,0,0,0,0,0,0,0,0,2,0,0,0,0,0,0,0,0,0,0,0,0
189,237,213214938,Highbury Square,51.5578,-0.102778,highbury-square,28,26,37,33,58,56,51,50,44,36,35,63,30,31,25,34,43,37,36,37,35,28,30,35,29,31,22,28,25,16,24,27,33,40,21,31,26,0,0,0,0,0,0,0,0,0,0,0
190,238,101916727822002,Capital Training and Events,51.448561100000006,-0.0171392,capital-training-and-events,0,0,0,0,0,0,0,0,0,0,0,0,0,0,0,0,0,0,0,0,0,0,0,0,0,0,0,0,0,0,0,1,0,0,0,0,0,0,0,0,0,0,0,0,0,0,0,0
191,239,1019232844767416,Vegan Express,51.431748799999994,-0.1761956,vegan-express,11,12,6,8,13,5,9,2,14,6,5,3,16,10,7,2,9,4,6,9,8,9,4,5,9,6,1,4,2,3,2,2,8,2,3,2,2,0,0,0,0,0,0,0,0,0,0,0
192,240,101930454542437,Perfection Bodyworks Ltd,51.417156864300004,-0.0506375494,perfection-bodyworks-ltd,0,0,0,0,0,0,0,0,0,0,0,0,0,0,0,0,0,0,0,0,0,0,0,0,0,0,0,0,0,0,0,0,0,2,0,0,0,0,0,0,0,0,0,0,0,0,0,0
193,241,1019349961476177,FAB - Fetish Alternative Boutique,51.542274915200004,-0.14813303949999998,fab-fetish-alternative-boutique,30,23,26,29,30,26,30,30,28,28,29,18,12,2,12,35,29,28,35,31,35,35,28,21,27,25,28,29,27,31,23,27,19,31,18,21,14,0,0,0,0,0,0,0,0,0,0,0
194,242,1024459640,West Norwood Library & Picturehouse,51.4331878067,-0.1033062025,west-norwood-library-picturehouse,0,0,0,0,0,0,0,0,0,0,0,0,0,0,0,0,0,0,0,2,0,6,47,34,36,32,37,39,43,27,26,20,49,42,32,34,11,0,0,0,0,0,0,0,0,0,0,0
195,243,1019588591529881,No1 Auto Repair Shop Kingsbury,51.59166,-0.25124,no1-auto-repair-shop-kingsbury,0,0,0,0,0,0,0,0,0,0,0,0,0,0,0,0,0,0,0,0,0,0,0,0,1,0,0,0,0,0,0,0,1,0,0,0,0,0,0,0,0,0,0,0,0,0,0,0
196,244,280741628,"Leyton City, London",51.571723938000005,-0.0061569214,leyton-city-london,0,0,0,0,0,0,0,0,0,0,0,1,0,0,0,0,0,0,0,0,0,0,0,1,0,0,0,0,0,0,1,2,9,33,21,10,6,0,0,0,0,0,0,0,0,0,0,0
197,245,10197689668,Erased Tapes,51.53818,-0.04407,erased-tapes,0,0,0,0,0,0,0,0,0,0,0,0,0,0,0,0,1,0,0,0,0,0,0,0,0,2,0,3,2,0,1,2,1,0,0,1,0,0,0,0,0,0,0,0,0,0,0,0
198,246,101986247832428,Rainbow Day nursery,51.39757,0.0152,rainbow-day-nursery,0,0,0,0,0,0,0,0,0,0,0,0,0,0,0,0,0,0,0,0,0,0,0,0,0,0,0,0,0,0,0,0,1,0,0,0,0,0,0,0,0,0,0,0,0,0,0,0
199,247,1020086691435697,"Southwark Park - Bermondsey, London",51.4217805,-0.17667360000000001,southwark-park-bermondsey-london,0,0,0,0,0,0,0,1,0,1,0,21,46,49,35,33,64,75,37,47,51,36,133,23,0,0,0,0,1,125,49,58,37,11,25,50,24,0,0,0,0,0,0,0,0,0,0,0
200,248,271893213,Beckton Community centre,51.510371792799994,0.0630817916,beckton-community-centre,0,0,3,0,2,0,0,0,0,0,1,0,0,0,0,1,0,0,1,0,3,2,2,0,0,2,1,2,0,0,2,0,2,4,4,2,1,0,0,0,0,0,0,0,0,0,0,0
201,249,1020233071427832,Trofeo DueTorri,51.57026,0.01209,trofeo-duetorri,0,0,0,0,0,0,0,0,0,0,0,0,0,0,0,0,0,0,0,0,0,0,0,0,0,0,0,0,0,0,0,0,0,0,1,0,0,0,0,0,0,0,0,0,0,0,0,0
202,250,102023714632545,Don Luigi Pizzeria & Restaurant - Streatham,51.43848,-0.12767989999999999,don-luigi-pizzeria-restaurant-streatham,0,0,0,0,0,0,0,0,0,0,0,0,0,0,0,0,0,0,0,0,0,0,0,0,0,0,0,0,0,0,0,0,0,0,0,0,3,0,0,0,0,0,0,0,0,0,0,0
203,251,1020284168117612,Costa Coffee,51.595281078,-0.0690908878,costa-coffee,0,0,0,0,0,0,0,0,0,0,0,1,0,0,1,1,0,0,2,1,2,2,0,0,0,2,2,0,0,0,0,1,2,2,1,0,0,0,0,0,0,0,0,0,0,0,0,0
204,252,102043057821067,Djalis Artisan Gallery London,51.5185957382,-0.2078646689,djalis-artisan-gallery-london,0,0,0,0,0,0,0,0,0,0,0,0,0,0,0,0,0,0,0,0,0,0,0,0,0,0,0,0,0,0,0,3,6,0,0,1,0,0,0,0,0,0,0,0,0,0,0,0
205,255,102064701165878,Forza Wine,51.4698757629,-0.0681934843,forza-wine,0,0,0,0,0,0,0,0,0,0,0,0,0,0,0,0,0,0,0,0,0,0,0,0,0,0,0,0,0,0,0,3,82,70,47,31,19,0,0,0,0,0,0,0,0,0,0,0
206,256,45805954,Elephant Royale,51.5771609163,0.0674473275,elephant-royale,0,1,6,3,3,2,1,3,1,1,0,2,1,5,2,0,3,4,2,1,2,0,0,1,2,2,0,4,1,2,3,2,3,1,1,2,1,0,0,0,0,0,0,0,0,0,0,0
207,257,263953341,Clore Tikva School,51.594489128,0.07982894509999999,clore-tikva-school,0,0,0,0,0,2,0,0,0,0,0,0,0,0,0,0,0,1,1,0,0,0,0,1,0,0,0,0,0,0,3,0,0,1,0,1,0,0,0,0,0,0,0,0,0,0,0,0
208,258,283349132,Barking Dog,51.53976627229999,0.0814848175,barking-dog,1,3,1,0,3,6,9,6,5,3,2,8,8,1,8,2,10,8,0,3,2,5,6,4,4,4,7,2,2,8,3,4,5,5,3,5,0,0,0,0,0,0,0,0,0,0,0,0
209,259,339739243,King and I,51.3980436405,-0.0433233252,king-and-i,0,0,0,1,1,0,3,1,1,0,1,1,0,1,1,0,0,1,0,1,0,0,0,0,1,3,4,0,1,1,0,1,0,0,0,1,0,0,0,0,0,0,0,0,0,0,0,0
210,260,1027910237,Ali Barbers Barkingside,51.59232,0.08355,ali-barbers-barkingside,3,0,13,4,6,0,1,0,0,1,0,0,2,1,2,1,3,1,6,2,1,0,7,0,13,7,4,1,4,2,0,0,3,0,0,2,0,0,0,0,0,0,0,0,0,0,0,0
211,262,102130634512215,Property Investor Market,51.5157320993,-0.0802670224,property-investor-market,0,0,0,0,0,0,0,0,0,0,0,0,0,0,0,0,0,0,0,0,0,0,0,0,0,0,0,0,0,0,0,0,0,0,1,0,0,0,0,0,0,0,0,0,0,0,0,0
212,263,102167971202224,012 VN,51.4788085,-0.0103642,012-vn,0,0,0,0,0,0,0,0,0,0,0,0,0,0,0,0,0,0,0,0,0,0,0,0,0,0,0,0,0,0,0,0,0,0,0,0,2,0,0,0,0,0,0,0,0,0,0,0
213,264,102171659824463,Lloegr,51.5077222222,-0.1279722222,lloegr,2,2,3,2,0,4,6,1,2,1,1,5,1,13,44,63,66,53,43,54,53,44,33,34,46,36,90,98,109,35,115,350,520,646,776,933,647,0,0,0,0,0,0,0,0,0,0,0
214,266,102180411133021,marks_of_se8,51.475017809099995,-0.025818869300000002,marks_of_se8,0,0,0,0,0,0,0,0,0,0,0,0,0,0,0,0,0,0,0,0,0,0,0,0,0,0,0,0,0,0,0,0,0,0,0,34,11,0,0,0,0,0,0,0,0,0,0,0
215,267,102188871189201,Farha's kitchen Eltham,51.43418,0.06507,farhas-kitchen-eltham,0,0,0,0,0,0,0,0,0,0,0,0,0,0,0,0,0,0,0,0,0,0,0,0,0,0,0,0,0,0,0,0,0,1,0,0,0,0,0,0,0,0,0,0,0,0,0,0
216,268,102222554562721,H Rose Nails Hair London,51.58274779999999,-0.2273284,h-rose-nails-hair-london,0,0,0,0,0,0,0,0,0,0,0,0,0,0,0,0,0,0,0,0,0,0,0,0,0,0,0,0,0,0,0,0,0,0,2,0,0,0,0,0,0,0,0,0,0,0,0,0
217,269,102243066836825,"Millennium Gloucester Hotel, London",51.449731400000005,0.01436637,millennium-gloucester-hotel-london,0,0,3,2,1,1,1,0,11,1,0,0,1,1,0,0,0,0,0,0,0,0,0,2,1,1,3,2,1,1,2,5,8,1,3,3,1,0,0,0,0,0,0,0,0,0,0,0
218,270,102252841215417,Caravela Restaurant,51.47084,-0.17263,caravela-restaurant,0,0,0,0,0,0,0,0,0,0,0,0,0,0,0,0,0,0,0,0,0,0,0,0,0,0,0,0,0,0,0,0,0,0,1,2,2,0,0,0,0,0,0,0,0,0,0,0
219,271,102255051168225,Calvary Premier Chapel - CPC,51.5110648,-0.018487200000000002,calvary-premier-chapel-cpc,0,0,0,0,0,0,0,0,0,0,0,0,0,0,0,0,0,0,0,0,0,0,0,0,0,0,0,0,0,0,0,0,0,0,0,0,1,0,0,0,0,0,0,0,0,0,0,0
220,272,1022695681118546,Lux Lighting,51.620141499999995,-0.0172768,lux-lighting,0,0,0,0,22,13,6,9,5,9,12,11,1,3,10,4,2,0,0,0,0,0,0,0,0,0,0,0,0,0,0,0,0,0,0,0,0,0,0,0,0,0,0,0,0,0,0,0
221,273,102278244520183,The O2 Arena,51.5010289316,0.0050790246,the-o2-arena,0,0,0,0,0,0,0,0,0,0,0,0,0,0,0,0,0,0,0,0,0,0,0,0,0,0,0,0,2,0,0,2,0,30,428,0,0,0,0,0,0,0,0,0,0,0,0,0
222,275,1023201657747536,AWTuning,51.4409146373,0.08754730220000001,awtuning,0,1,2,3,12,7,7,3,7,11,24,38,30,37,37,23,30,22,18,20,12,10,14,11,14,5,5,6,4,7,11,7,0,14,7,9,7,0,0,0,0,0,0,0,0,0,0,0
223,277,1023342844366609,Sfc Academy,51.608636499999996,-0.22619899999999998,sfc-academy,0,0,0,0,0,0,0,0,0,0,0,0,0,0,0,3,2,6,2,0,4,0,0,0,0,0,0,0,0,0,0,0,0,0,0,0,0,0,0,0,0,0,0,0,0,0,0,0
224,278,638591478,Mill Hill East tube station,51.608333,-0.21027800000000002,mill-hill-east-tube-station,1,4,3,6,5,5,6,5,3,5,12,8,2,2,8,3,3,4,4,4,8,6,5,1,7,4,3,8,5,2,1,3,10,7,4,6,3,0,0,0,0,0,0,0,0,0,0,0
225,279,102338247806914,Laser by Carly,51.4096,-0.03121,laser-by-carly,0,0,0,0,0,0,0,0,0,0,0,0,0,0,0,0,0,0,0,0,0,0,0,0,0,0,0,0,0,0,0,0,0,0,0,1,0,0,0,0,0,0,0,0,0,0,0,0
226,280,1023383217737798,Gucci Tallava London,51.5433,-0.19941,gucci-tallava-london,0,2,3,0,2,0,0,0,1,0,2,1,1,0,0,0,0,0,1,0,8,5,3,7,3,2,1,2,1,0,3,10,5,0,1,5,1,0,0,0,0,0,0,0,0,0,0,0
227,281,1023513837829514,Secret Studio Blackheath,51.476783700000006,0.0187187,secret-studio-blackheath,0,0,0,0,0,0,0,0,0,0,0,0,0,0,0,0,0,0,0,0,0,1,0,0,0,0,0,1,0,1,0,2,0,0,0,0,0,0,0,0,0,0,0,0,0,0,0,0
228,282,1023582277832936,The CLF Art Lounge,51.469976003599996,-0.0690829754,the-clf-art-lounge,0,0,0,0,0,0,0,0,0,0,0,0,0,0,0,0,0,0,0,0,0,0,0,0,0,0,0,0,0,0,0,62,52,46,43,39,18,0,0,0,0,0,0,0,0,0,0,0
229,283,102361357833072,Sam's Riverside W6,51.4887,-0.22715,sams-riverside-w6,0,0,0,0,0,0,0,0,0,0,0,0,0,0,0,0,0,0,0,0,0,0,0,0,0,0,0,0,0,0,0,0,0,45,107,63,33,0,0,0,0,0,0,0,0,0,0,0
230,284,228362229,Walthamstow Pumphouse Museum,51.576765878500005,-0.034685891499999996,walthamstow-pumphouse-museum,3,3,0,3,8,8,2,1,6,11,3,16,9,9,6,4,1,8,3,12,8,3,14,9,8,9,25,104,3,6,6,16,21,10,5,3,0,0,0,0,0,0,0,0,0,0,0,0
231,287,102397187873701,Hootch Wine Cellar,51.55036,-0.07502,hootch-wine-cellar,0,0,0,0,0,0,0,0,0,0,0,0,0,0,0,0,0,0,0,0,0,0,0,0,0,0,0,0,0,0,0,0,0,0,1,1,4,0,0,0,0,0,0,0,0,0,0,0
232,288,102397404464772,Sham Grill Kingston,51.412420000000004,-0.28704,sham-grill-kingston,0,0,0,0,0,0,0,0,0,0,0,0,0,0,0,0,0,0,0,0,0,0,0,0,0,0,0,0,0,0,0,0,0,0,1,0,0,0,0,0,0,0,0,0,0,0,0,0
233,289,102402514519464,ROZEL Barbers,51.58513,-0.13278,rozel-barbers,0,0,0,0,0,0,0,0,0,0,0,0,0,0,0,0,0,0,0,0,0,0,0,0,0,0,0,0,0,0,0,0,0,0,2,2,0,0,0,0,0,0,0,0,0,0,0,0
234,290,102416537815133,Leyton Urban Cricket Hub,51.55871,-0.00715,leyton-urban-cricket-hub,0,0,0,0,0,0,0,0,0,0,0,0,0,0,0,0,0,0,0,0,0,0,0,0,0,0,0,0,0,0,0,0,0,0,0,0,1,0,0,0,0,0,0,0,0,0,0,0
235,291,102418517857582,Vadi south wood,51.595382844700005,0.0223254173,vadi-south-wood,0,0,0,0,0,0,0,0,0,0,0,0,0,0,0,0,0,0,0,0,0,0,0,0,0,0,0,0,0,0,0,0,0,0,0,12,0,0,0,0,0,0,0,0,0,0,0,0
236,292,3328175,PA Media,51.5187351,-0.1751576,pa-media,1,1,5,1,2,2,6,2,3,6,8,10,1,3,1,1,7,2,2,1,3,0,1,1,0,5,7,3,4,0,2,0,0,0,2,2,0,0,0,0,0,0,0,0,0,0,0,0
237,293,912567074,Premier Inn London Edgware,51.6081260912,-0.2767918969,premier-inn-london-edgware,1,4,3,7,3,3,8,4,6,6,4,2,1,4,0,2,0,2,4,4,3,1,0,2,3,1,4,0,1,5,3,7,2,5,1,5,1,0,0,0,0,0,0,0,0,0,0,0
238,297,1024765084234984,Joy Resolve,51.5377437,-0.057134199999999996,joy-resolve,0,0,0,0,0,0,0,0,0,0,0,0,0,0,0,0,0,0,0,0,0,0,0,0,0,0,0,0,0,0,0,0,0,0,2,0,1,0,0,0,0,0,0,0,0,0,0,0
239,298,213207,Waltham Forest College,51.5911227964,-0.0102330164,waltham-forest-college,9,13,10,6,11,12,9,8,9,9,10,10,8,10,12,6,15,18,5,2,9,14,14,8,9,14,20,11,15,9,8,6,19,28,37,16,7,0,0,0,0,0,0,0,0,0,0,0
240,299,372275643,London Oxford Street,51.554293055100004,-0.069745469,london-oxford-street,4,1,1,1,0,2,0,3,0,2,4,9,1,0,8,4,6,4,4,2,3,3,6,8,8,3,6,10,6,3,7,10,189,609,1644,2991,1174,0,0,0,0,0,0,0,0,0,0,0
241,300,1024908177598613,Craft Tooting,51.42854439999999,-0.16724270000000002,craft-tooting,45,42,48,40,43,36,32,38,49,31,32,32,30,35,40,32,40,36,28,25,35,24,28,29,21,23,37,30,40,31,29,28,33,32,26,27,15,0,0,0,0,0,0,0,0,0,0,0
242,301,1020003328,King George V DLR station,51.5020042862,0.0622701645,king-george-v-dlr-station,2,1,4,7,4,7,2,4,8,4,6,2,4,3,6,1,1,4,6,1,2,3,8,4,0,2,4,3,1,0,1,4,13,16,14,4,0,0,0,0,0,0,0,0,0,0,0,0
243,302,12194115,Claybury Park,51.599459295,0.0681635242,claybury-park,14,3,0,0,1,3,3,4,2,23,8,2,3,1,2,8,11,14,17,5,12,35,9,1,6,0,3,0,0,0,0,0,6,36,10,23,6,0,0,0,0,0,0,0,0,0,0,0
244,303,400001122,Woolwich Arsenal Pier,51.4959325186,0.0708951467,woolwich-arsenal-pier,33,23,44,334,114,63,48,24,38,46,19,10,9,27,13,27,37,50,125,57,58,46,27,16,31,25,20,25,33,57,50,79,65,53,44,27,7,0,0,0,0,0,0,0,0,0,0,0
245,304,345677897,Snaresbrook tube station,51.5804602812,0.0212908506,snaresbrook-tube-station,9,3,7,12,7,15,11,6,4,6,7,11,6,6,16,6,7,10,7,2,7,6,7,4,7,5,8,8,3,7,4,2,6,8,3,2,2,0,0,0,0,0,0,0,0,0,0,0
246,305,232180511,Norbury railway station,51.4115833638,-0.12249128570000001,norbury-railway-station,14,11,8,7,10,4,8,6,15,9,18,9,12,24,22,12,3,19,10,4,8,8,12,6,13,6,5,3,4,3,1,15,12,7,5,2,0,0,0,0,0,0,0,0,0,0,0,0
247,306,219884826,Crystal Palace Dinosaurs,51.4175,-0.06722222,crystal-palace-dinosaurs,58,94,108,185,160,113,117,200,157,113,106,43,115,107,123,168,190,136,96,122,134,95,84,64,81,102,85,119,115,81,56,112,99,43,53,37,32,0,0,0,0,0,0,0,0,0,0,0
248,307,316057022,Leyton Midland Road railway station,51.5693,-0.0072,leyton-midland-road-railway-station,0,3,12,11,33,20,3,3,3,4,10,10,7,12,10,10,11,14,10,9,13,10,10,9,14,18,4,8,8,17,10,13,8,9,16,19,19,0,0,0,0,0,0,0,0,0,0,0
249,309,244096466,London Riverside,51.485676652200006,-0.1270260012,london-riverside,15,22,16,9,4,4,7,16,24,22,25,25,22,34,22,30,23,25,20,26,43,57,52,60,34,39,51,33,48,48,55,99,114,71,47,52,16,0,0,0,0,0,0,0,0,0,0,0
250,310,229602467,Nunhead Cemetery,51.46423,-0.05304,nunhead-cemetery,167,103,143,220,241,111,134,139,222,241,168,128,142,144,142,162,177,87,120,115,150,209,112,109,161,105,114,102,230,92,103,63,149,125,125,60,37,0,0,0,0,0,0,0,0,0,0,0
251,311,399912955,"The Three Wishes, Edgware",51.61208,-0.28053,the-three-wishes-edgware,0,0,1,1,1,1,0,1,1,0,2,0,0,0,1,1,1,1,0,0,0,1,2,1,1,0,2,1,0,0,2,1,1,1,0,2,0,0,0,0,0,0,0,0,0,0,0,0
252,312,233565459,Silver Street railway station,51.614873216999996,-0.066677451,silver-street-railway-station,2,2,9,3,5,3,2,1,6,8,10,6,5,5,11,5,4,1,3,6,2,4,0,1,1,1,2,2,3,2,3,1,7,3,1,2,0,0,0,0,0,0,0,0,0,0,0,0
253,313,102575317793499,Haar Bros,51.6140313433,-0.2507592905,haar-bros,0,0,0,0,0,0,0,0,0,0,0,0,0,0,0,0,0,0,0,0,0,0,0,0,0,0,0,0,0,0,0,0,0,0,1,6,4,0,0,0,0,0,0,0,0,0,0,0
254,314,1025755904245137,In Portugalia,51.5323819,-0.2752361,in-portugalia,0,0,0,0,0,0,0,0,0,0,0,0,0,0,0,0,0,0,2,0,0,0,0,0,0,0,0,0,0,0,0,0,0,0,0,0,0,0,0,0,0,0,0,0,0,0,0,0
255,315,189539,North London Business Park,51.625170019799995,-0.15216570529999998,north-london-business-park,8,2,9,9,15,14,6,16,6,14,22,9,9,1,2,6,7,4,4,11,35,31,49,39,21,37,29,17,12,16,4,4,4,9,7,3,5,0,0,0,0,0,0,0,0,0,0,0
256,316,215734238,Roundwood Park,51.5406882333,-0.2400817988,roundwood-park,65,74,110,134,107,124,132,98,89,137,147,106,88,74,90,122,143,90,114,74,90,99,78,52,59,103,71,73,101,61,90,87,92,97,82,49,33,0,0,0,0,0,0,0,0,0,0,0
257,317,102593111128031,"Mamma Dough, South Norwood",51.3979197577,-0.07637771089999999,mamma-dough-south-norwood,0,0,0,0,0,0,0,0,0,0,0,0,0,0,0,0,0,0,0,0,0,0,0,0,0,0,0,0,0,0,0,0,17,3,3,2,2,0,0,0,0,0,0,0,0,0,0,0
258,318,102614887874175,Legend barber shop,51.58985,-0.00455,legend-barber-shop,0,0,0,0,0,0,0,0,0,0,0,0,0,0,0,0,0,0,0,0,0,0,0,0,0,0,0,0,0,0,0,0,0,0,0,0,5,0,0,0,0,0,0,0,0,0,0,0
259,319,606019898,Edmonton Methodist Church,51.618271,-0.06287340000000001,edmonton-methodist-church,0,0,0,0,0,0,0,0,1,0,0,0,0,0,0,0,0,0,0,0,0,0,0,0,0,0,1,0,0,0,0,1,0,0,0,0,0,0,0,0,0,0,0,0,0,0,0,0
260,320,102617727864254,Medi-Park Clinic,51.583259999999996,-0.1001,medi-park-clinic,0,0,0,0,0,0,0,0,0,0,0,0,0,0,0,0,0,0,0,0,0,0,0,0,0,0,0,0,0,0,0,0,0,0,4,5,3,0,0,0,0,0,0,0,0,0,0,0
261,321,345471538,Lichfield Court,51.461364258900005,-0.3011988234,lichfield-court,0,0,2,1,1,3,4,4,3,8,4,8,2,1,6,2,0,1,1,0,1,0,4,3,0,0,0,1,0,0,0,1,0,0,0,0,0,0,0,0,0,0,0,0,0,0,0,0
262,322,264871181,"Sacred Heart Church, Wimbledon",51.4177,-0.2194,sacred-heart-church-wimbledon,2,7,10,13,13,5,15,15,33,18,10,16,13,4,7,14,7,8,9,21,8,17,11,14,7,3,4,5,6,3,10,6,9,8,6,5,5,0,0,0,0,0,0,0,0,0,0,0
263,323,1026589034034455,SignHealth Charity,51.4425530485,-0.1512229443,signhealth-charity,0,0,0,0,0,0,0,0,0,0,0,0,0,0,0,0,0,0,0,0,0,0,0,0,0,1,0,0,0,0,0,0,0,1,0,0,0,0,0,0,0,0,0,0,0,0,0,0
264,324,228425711,Cannizaro Park,51.4242,-0.23083299999999998,cannizaro-park,47,51,136,251,196,144,106,147,118,133,112,58,73,72,58,135,218,131,110,106,98,112,53,58,67,95,82,118,147,79,86,119,102,92,98,43,23,0,0,0,0,0,0,0,0,0,0,0
265,325,1026672554064114,The Dog Guardian,51.50759,-0.24508000000000002,the-dog-guardian,0,0,0,0,0,0,0,0,0,0,0,0,0,0,1,0,0,0,0,0,0,0,0,0,0,0,0,1,1,0,0,0,0,0,0,0,0,0,0,0,0,0,0,0,0,0,0,0
266,326,248362534,Stoke Newington railway station,51.564896830600006,-0.07260069059999999,stoke-newington-railway-station,13,13,12,5,9,21,15,11,16,20,19,10,43,39,31,26,13,33,18,11,22,23,26,20,30,17,17,12,13,11,9,12,16,6,7,5,1,0,0,0,0,0,0,0,0,0,0,0
267,327,230714078,Alexandra Palace railway station,51.598098991,-0.11992920300000001,alexandra-palace-railway-station,21,9,7,15,23,12,17,9,11,13,14,13,11,11,8,21,19,17,13,6,13,15,19,13,17,21,15,24,19,36,14,23,15,20,16,12,10,0,0,0,0,0,0,0,0,0,0,0
268,328,1031501337,Patricija,51.59189,0.08367999999999999,patricija,0,0,0,0,0,0,0,0,0,0,0,0,0,0,0,0,0,0,0,0,0,0,0,1,0,0,0,1,0,1,0,0,0,0,0,0,0,0,0,0,0,0,0,0,0,0,0,0
269,329,549602708,Wandsworth Park- (Putney Bridge Road),51.445390902,-0.1922516598,wandsworth-park-putney-bridge-road,1,0,0,0,0,0,0,0,1,0,0,0,0,0,0,0,0,1,0,0,0,0,0,0,0,1,45,47,46,26,41,68,85,87,104,36,9,0,0,0,0,0,0,0,0,0,0,0
270,330,1021705597,Official Somali Cable,51.5649185,-0.2501479,official-somali-cable,0,0,0,0,0,0,0,0,0,0,0,0,0,0,0,0,0,0,0,0,0,0,0,0,0,0,0,0,0,0,0,1,0,1,0,0,0,0,0,0,0,0,0,0,0,0,0,0
271,331,2160280,Willesden Sports Centre,51.540660046300005,-0.2310138899,willesden-sports-centre,42,34,35,46,44,46,26,25,28,35,21,24,6,14,40,11,2,28,38,35,29,34,38,30,34,26,1,0,0,0,0,0,1,0,0,0,0,0,0,0,0,0,0,0,0,0,0,0
272,332,102790879790431,Polish Family Association,51.42543,-0.2183,polish-family-association,0,0,0,0,0,0,0,0,1,0,0,0,0,0,0,0,0,0,0,0,0,0,0,0,0,0,0,0,0,0,0,0,0,0,0,0,0,0,0,0,0,0,0,0,0,0,0,0
273,334,928201230,Juice Shop UK,51.6166918843,-0.0856066721,juice-shop-uk,1,0,0,0,0,0,0,1,0,0,0,0,0,1,1,0,2,18,1,0,0,0,0,8,1,1,0,1,0,2,1,0,0,0,0,1,1,0,0,0,0,0,0,0,0,0,0,0
274,335,102822186489038,The Gipsy Moth,51.4824052358,-0.0097546901,the-gipsy-moth,0,1,0,0,2,0,0,0,67,62,39,33,18,56,78,100,102,70,59,50,44,33,38,36,20,27,34,46,59,53,32,48,29,27,17,33,10,0,0,0,0,0,0,0,0,0,0,0
275,336,435723,East Dulwich Tavern,51.4604792686,-0.0752202781,east-dulwich-tavern,0,0,0,19,51,47,57,46,47,70,70,62,45,58,38,52,56,51,59,33,31,34,26,72,53,41,27,38,35,37,41,31,34,16,28,26,13,0,0,0,0,0,0,0,0,0,0,0
276,337,17073330,HMP Thameside,51.4933402002,0.08773254470000001,hmp-thameside,0,1,0,0,2,1,1,0,1,1,1,0,0,0,0,0,0,0,1,2,0,2,2,0,3,1,2,2,1,4,2,3,3,2,2,1,2,0,0,0,0,0,0,0,0,0,0,0
277,338,1028390933908211,TechnipFMC,51.5137319601,-0.10038946730000001,technipfmc,2,4,0,1,0,1,1,2,1,1,0,1,4,0,3,1,3,3,2,1,0,1,3,1,1,1,1,0,1,1,2,1,0,3,0,1,0,0,0,0,0,0,0,0,0,0,0,0
278,340,102884369774196,Old Thameside Inn,51.50722041270001,-0.0904417366,old-thameside-inn,27,35,57,52,66,49,89,59,62,54,47,50,35,42,53,65,92,99,77,88,67,53,44,35,37,35,65,59,69,48,60,75,52,46,32,41,11,0,0,0,0,0,0,0,0,0,0,0
279,342,230701004,Meridiano de Greenwich,51.477882397399995,-0.0013711615,meridiano-de-greenwich,2,2,1,2,6,6,11,4,3,3,9,4,9,2,8,8,5,6,6,16,23,28,16,12,88,106,35,72,90,66,88,249,148,71,47,59,33,0,0,0,0,0,0,0,0,0,0,0
280,343,736757024,London Olympic Athletics Stadium,51.5396442818,-0.0166053771,london-olympic-athletics-stadium,0,0,0,0,0,0,0,2,0,0,0,0,1,0,0,0,1,0,3,0,1,67,248,207,424,592,296,90,61,117,77,54,50,17,14,15,6,0,0,0,0,0,0,0,0,0,0,0
281,345,1029375807073944,Healthwatch England,51.493180100000004,-0.1465215,healthwatch-england,0,0,0,0,0,0,0,0,0,0,0,0,0,0,0,0,0,0,0,0,0,0,0,0,0,0,0,0,0,0,0,0,0,1,0,0,0,0,0,0,0,0,0,0,0,0,0,0
282,346,102951141086917,AirThrill London,51.44477,-0.01765,airthrill-london,0,0,0,0,0,0,0,0,0,0,0,0,0,0,0,0,0,0,0,0,0,0,0,0,0,0,0,0,0,0,0,0,0,0,19,13,8,0,0,0,0,0,0,0,0,0,0,0
283,347,102956394423904,ABBA Super Troupers,51.47723,-0.0024099,abba-super-troupers,0,0,0,0,0,0,0,0,0,0,0,0,0,0,0,0,0,0,0,0,0,0,0,0,0,0,0,0,0,0,0,0,2,2,0,26,25,0,0,0,0,0,0,0,0,0,0,0
284,348,102963357845109,Meraki Hair Studio Ltd,51.39011,0.07417,meraki-hair-studio-ltd,0,0,0,0,0,0,0,0,0,0,0,0,0,0,0,0,0,0,0,0,0,0,0,0,0,0,0,0,0,0,0,0,0,0,1,0,0,0,0,0,0,0,0,0,0,0,0,0
285,349,102984654380612,Escape Bar West,51.50119,-0.23326999999999998,escape-bar-west,0,0,0,0,0,0,0,0,0,0,0,0,0,0,0,0,0,0,0,0,0,0,0,0,0,0,0,0,0,0,0,3,25,37,56,28,28,0,0,0,0,0,0,0,0,0,0,0
286,350,103013817728507,Gurkha Beer,51.4821312275,0.0617980957,gurkha-beer,0,0,0,0,0,0,0,0,0,0,0,0,0,0,0,0,0,0,0,0,0,0,0,0,0,0,0,0,0,0,0,2,0,0,0,0,0,0,0,0,0,0,0,0,0,0,0,0
287,351,331072617,Ganley's Irish Bar,51.4023624009,-0.19350732760000003,ganleys-irish-bar,4,13,18,4,4,3,16,9,13,10,4,7,15,4,18,3,3,5,6,6,7,7,6,8,11,3,15,11,6,3,1,14,8,6,7,5,2,0,0,0,0,0,0,0,0,0,0,0
288,352,852391,Park Plaza Westminster Bridge London,51.5008344321,-0.1170148564,park-plaza-westminster-bridge-london,646,464,561,536,579,454,518,426,754,765,927,913,540,510,630,439,603,398,387,356,538,722,894,735,774,417,445,469,322,376,727,350,499,553,557,610,156,0,0,0,0,0,0,0,0,0,0,0
289,354,103021204498124,LA-Aesthetics,51.39063,0.08196,la-aesthetics,0,0,0,0,0,0,0,0,0,0,0,0,0,0,0,0,0,0,0,0,0,0,0,0,0,0,0,0,0,0,0,0,0,0,0,6,4,0,0,0,0,0,0,0,0,0,0,0
290,355,1030370983764430,Croydon London,51.3918328247,-0.1141291575,croydon-london,0,1,1,0,0,2,3,3,6,7,11,21,31,47,55,36,38,49,43,53,99,51,60,72,69,72,94,126,136,244,270,313,330,450,238,225,98,0,0,0,0,0,0,0,0,0,0,0
291,356,276853869,The Postal Order,51.41844251,-0.0821775715,the-postal-order,5,2,4,1,0,0,0,0,1,0,0,0,0,1,0,0,0,0,0,0,3,5,1,6,0,1,4,2,2,3,0,2,3,3,3,1,1,0,0,0,0,0,0,0,0,0,0,0
292,357,255608373,Leyton,51.5667,-0.0166667,leyton,292,291,354,402,558,580,525,426,332,370,401,531,367,698,820,869,840,929,583,668,536,569,480,499,554,632,1145,1273,1273,1099,837,910,691,913,760,912,377,0,0,0,0,0,0,0,0,0,0,0
293,358,215733183,The Crystal Palace,51.422294444399995,-0.07578888889999999,the-crystal-palace,37,22,41,74,44,33,15,80,126,25,39,10,16,11,10,11,9,15,5,14,9,9,11,12,8,19,6,8,2,6,2,13,24,6,4,6,3,0,0,0,0,0,0,0,0,0,0,0
294,359,303100509,10 out of 10 - Event Production & Equipment Hire,51.4217442041,-0.0349330902,10-out-of-10-event-production-equipment-hire,0,1,0,1,0,0,0,0,0,0,1,0,0,0,0,0,0,0,0,0,0,0,1,0,0,0,0,0,0,0,0,0,0,0,0,0,0,0,0,0,0,0,0,0,0,0,0,0
295,360,213076320,Tate Modern,51.5077040839,-0.09945631029999999,tate-modern,0,0,0,0,0,0,0,0,0,0,0,0,0,0,0,0,0,0,0,0,0,0,0,0,0,0,0,0,0,0,0,0,0,0,0,13211,7990,0,0,0,0,0,0,0,0,0,0,0
296,361,213827203,221B Baker Street,51.5233333333,-0.1583333333,221b-baker-street,1343,559,558,557,559,298,261,234,166,224,272,193,197,151,164,222,156,212,316,374,340,307,281,311,336,163,180,345,501,444,506,517,606,857,765,927,450,0,0,0,0,0,0,0,0,0,0,0
297,362,220816620,West Ham,51.528211256400006,0.0054605923999999995,west-ham,153,127,178,177,171,149,167,142,145,178,144,176,157,132,127,128,95,107,116,97,102,80,465,532,121,113,72,56,80,173,182,129,105,95,92,130,61,0,0,0,0,0,0,0,0,0,0,0
298,363,227774737,"Kilburn, London",51.5366,-0.2039,kilburn-london,663,761,1025,967,893,793,557,588,633,742,634,824,613,642,602,570,499,451,612,592,534,618,624,752,762,777,644,615,610,577,543,501,564,732,735,644,315,0,0,0,0,0,0,0,0,0,0,0
299,364,1742886,Pembury Tavern,51.549346,-0.0593033,pembury-tavern,10,13,10,9,8,10,5,11,6,9,12,14,22,12,6,10,17,18,38,17,78,74,55,49,30,39,46,40,41,25,37,41,29,27,31,30,9,0,0,0,0,0,0,0,0,0,0,0
300,366,6596741,Cubitt Town,51.497480555600006,-0.0061611111,cubitt-town,1,1,1,6,3,1,3,6,1,0,4,2,1,5,2,7,1,2,0,0,2,1,3,4,1,3,10,6,9,2,7,4,5,21,5,3,2,0,0,0,0,0,0,0,0,0,0,0
301,367,212903546,Bayswater,51.5095,-0.1929805556,bayswater,486,417,386,475,427,3,0,0,0,0,0,0,0,0,0,0,1,2,0,0,0,0,0,0,0,0,3,119,159,120,95,205,141,135,63,86,52,0,0,0,0,0,0,0,0,0,0,0
302,368,504890233,London Bridge,51.508194894300004,-0.0875151157,london-bridge,0,0,0,0,0,0,0,0,0,0,0,0,0,0,0,0,0,0,0,0,0,0,0,0,0,0,0,0,0,0,0,0,0,0,0,0,74,0,0,0,0,0,0,0,0,0,0,0
303,369,222553024,"Cascais, Portugal",51.5041649255,0.0270523884,cascais-portugal,10,1,3,17,174,131,112,73,88,200,114,178,155,114,170,92,94,114,320,275,197,105,78,94,97,73,61,23,5,6,2,32,108,102,140,113,81,0,0,0,0,0,0,0,0,0,0,0
304,370,266931692,Virgo Fidelis Convent Senior School,51.4215,-0.0945,virgo-fidelis-convent-senior-school,1,0,1,0,4,1,2,3,0,0,2,2,1,1,4,3,2,4,2,2,2,1,3,0,2,1,0,3,4,2,0,2,1,1,0,2,0,0,0,0,0,0,0,0,0,0,0,0
305,371,442676563,"Chelsea, London",51.4862,-0.1653,chelsea-london,0,0,0,0,0,0,0,0,0,0,0,0,0,0,0,0,0,0,0,0,0,0,0,0,0,0,0,0,0,0,0,0,0,0,0,0,2756,0,0,0,0,0,0,0,0,0,0,0
306,372,212896019,Tulse Hill,51.4452,-0.1091,tulse-hill,172,224,344,418,323,219,173,229,203,214,183,246,169,198,190,147,156,181,138,150,116,127,118,504,361,339,157,159,146,115,125,120,193,178,182,196,75,0,0,0,0,0,0,0,0,0,0,0
307,373,217619412,Wandsworth,51.4644,-0.1924,wandsworth,0,0,0,2471,2441,2387,2060,2068,2278,2730,2575,2528,2449,2451,1879,2135,3239,3337,2027,1529,1696,1742,1495,1437,1457,1749,2937,2265,2687,1959,1969,1416,1156,1142,1128,1054,533,0,0,0,0,0,0,0,0,0,0,0
308,374,1031318396895722,Glutopia,51.409104,-0.30630799999999997,glutopia,7,15,8,11,10,4,7,12,12,9,7,5,0,10,4,6,6,0,4,3,5,7,3,2,5,1,4,6,4,3,2,4,0,3,0,0,0,0,0,0,0,0,0,0,0,0,0,0
309,375,238189066,The Salisbury,51.5823,-0.0994167,the-salisbury,37,31,24,37,45,21,35,48,48,38,31,37,30,17,25,21,29,19,29,20,17,25,28,36,27,26,27,14,22,37,28,21,25,37,24,25,7,0,0,0,0,0,0,0,0,0,0,0
310,376,103135653057442,ACCOTAX - Accountants & Tax Consultants,51.4033421225,-0.19208908079999998,accotax-accountants-tax-consultants,0,2,0,2,1,0,0,0,0,0,0,0,0,9,0,1,1,2,0,1,0,0,1,1,1,0,0,0,0,0,0,0,0,0,0,1,0,0,0,0,0,0,0,0,0,0,0,0
311,377,264686598,"Manor Park, London",51.550330555600006,0.056219444400000006,manor-park-london,98,72,138,176,145,168,178,174,110,261,147,235,222,154,186,269,212,217,406,224,265,266,217,245,253,192,192,225,213,189,219,166,184,247,202,214,131,0,0,0,0,0,0,0,0,0,0,0
312,378,748902206,"Edmonton, London",51.6154,-0.0708,edmonton-london,0,0,0,0,0,0,0,0,0,0,0,0,0,0,0,0,0,0,0,0,0,742,636,691,817,729,818,925,855,692,729,742,104,1,0,6,0,0,0,0,0,0,0,0,0,0,0,0
313,380,227800385,Royal Arsenal,51.491176,0.069937,royal-arsenal,15,16,18,28,10,25,9,6,3,0,0,1,2,1,1,1,0,1,2,3,1,7,17,13,18,18,24,14,17,16,22,37,156,62,103,105,32,0,0,0,0,0,0,0,0,0,0,0
314,381,103140859739230,Concupisco Men's Underwear and Swimwear,51.50286320000001,-0.2140315,concupisco-mens-underwear-and-swimwear,0,0,0,0,1,0,0,0,0,0,0,0,0,0,0,0,0,0,0,0,0,0,0,0,0,1,0,0,0,0,0,0,0,0,0,0,0,0,0,0,0,0,0,0,0,0,0,0
315,382,68399,Putney Bridge,51.4669444444,-0.21305555559999997,putney-bridge,662,543,724,1715,899,833,851,830,710,651,605,544,513,497,849,609,604,573,683,545,680,596,522,378,400,623,432,608,480,506,470,455,454,506,456,403,204,0,0,0,0,0,0,0,0,0,0,0
316,383,222825159,Mill Hill School,51.619,-0.2305,mill-hill-school,2,11,11,19,45,21,18,65,13,3,7,4,10,6,8,21,7,10,6,18,13,11,35,13,31,26,36,18,30,8,11,13,26,28,21,22,4,0,0,0,0,0,0,0,0,0,0,0
317,384,227673981,"Poplar, London",51.5066,-0.0178,poplar-london,131,120,155,238,151,224,148,148,134,168,180,210,152,209,190,181,161,184,294,227,262,309,289,309,271,275,214,272,217,219,170,203,197,297,272,280,220,0,0,0,0,0,0,0,0,0,0,0
318,385,227738011,Stein's,51.455531365,-0.3039969464,steins,5,0,13,34,36,48,54,44,16,14,12,6,5,6,6,17,31,35,28,28,11,14,1,2,2,4,9,11,13,21,26,31,12,4,3,3,3,0,0,0,0,0,0,0,0,0,0,0
319,386,49435600,Flat Iron,51.51481,-0.07874,flat-iron,395,535,458,413,457,412,396,465,481,531,503,488,473,429,417,429,382,345,331,177,374,473,362,408,335,280,319,303,287,289,263,251,209,104,51,46,32,0,0,0,0,0,0,0,0,0,0,0
320,387,215101048,Thames Barrier,51.4951716671,0.040416826,thames-barrier,103,114,152,223,167,129,136,121,157,143,78,59,84,87,70,77,132,121,110,99,162,112,91,70,82,92,68,77,97,90,84,109,141,125,94,76,64,0,0,0,0,0,0,0,0,0,0,0
321,388,216103134,Downing Street,51.503409999999995,-0.12765,downing-street,610,166,80,50,42,59,47,61,46,52,59,67,209,137,364,304,416,346,274,147,154,220,174,385,435,332,1038,412,475,411,683,772,454,515,147,275,63,0,0,0,0,0,0,0,0,0,0,0
322,389,227886312,"Upton Park, London",51.533,0.036472000000000004,upton-park-london,72,91,112,123,129,112,94,110,94,123,97,116,114,97,124,93,145,130,118,105,92,131,113,94,92,120,103,131,145,127,116,138,157,144,198,188,125,0,0,0,0,0,0,0,0,0,0,0
323,390,1031798900346110,Signature Care Homes Coombe Hill Manor,51.4156952092,-0.2529799989,signature-care-homes-coombe-hill-manor,0,0,0,0,0,0,0,0,0,0,0,0,0,0,0,0,0,0,0,0,0,0,0,0,0,0,0,0,0,2,0,0,0,1,0,0,0,0,0,0,0,0,0,0,0,0,0,0
324,391,233362590,Earl's Court tube station,51.4917645742,-0.1937615162,earls-court-tube-station,165,147,197,191,154,143,186,209,246,215,124,205,248,189,190,166,140,163,172,111,106,119,98,117,103,111,110,86,58,41,19,48,43,44,38,41,32,0,0,0,0,0,0,0,0,0,0,0
325,394,45653330,Block 336,51.46815,-0.113,block-336,7,1,37,37,12,5,3,3,1,40,41,21,83,74,18,13,2,9,8,8,2,6,7,10,8,6,2,2,30,19,2,3,4,19,6,11,11,0,0,0,0,0,0,0,0,0,0,0
326,395,1032087283643840,Stitch,51.6197485183,-0.10688066480000001,stitch,0,0,0,0,0,0,0,0,0,0,0,0,0,0,0,0,0,0,0,0,0,0,0,0,0,0,0,1,4,4,1,0,7,5,3,5,1,0,0,0,0,0,0,0,0,0,0,0
327,396,103214897874922,Cavalleros Tattoos,51.49259,-0.26734,cavalleros-tattoos,0,0,0,0,0,0,0,0,0,0,0,0,0,0,0,0,0,0,0,0,0,0,0,0,0,0,0,0,0,0,0,0,0,0,0,0,7,0,0,0,0,0,0,0,0,0,0,0
328,397,214967353,Canary Wharf Pier,51.505311733999996,-0.0287039015,canary-wharf-pier,64,37,90,98,117,88,91,109,140,111,76,96,95,148,140,269,445,420,393,396,743,661,399,339,366,319,401,274,202,181,243,264,314,155,73,86,22,0,0,0,0,0,0,0,0,0,0,0
329,398,230949710,Northumberland Park railway station,51.6019222424,-0.0537100053,northumberland-park-railway-station,2,2,1,2,1,0,3,2,0,0,0,1,1,0,1,1,3,1,2,3,0,0,3,1,2,3,0,0,2,0,0,0,5,1,0,0,1,0,0,0,0,0,0,0,0,0,0,0
330,400,282227565,Alton Estate,51.44713425,-0.24162966670000002,alton-estate,0,2,2,0,1,1,2,1,2,3,11,4,4,3,7,3,2,7,0,3,6,3,2,4,1,3,3,3,1,3,0,2,3,0,3,1,0,0,0,0,0,0,0,0,0,0,0,0
331,401,103244217703455,Kanenas Coffee London,51.5109994237,-0.30186384920000003,kanenas-coffee-london,0,0,0,0,0,0,0,0,0,0,0,0,0,0,0,0,0,0,0,0,0,0,0,0,0,0,0,0,0,0,0,1,9,27,47,33,25,0,0,0,0,0,0,0,0,0,0,0
332,402,103249526399386,American Dream UK,51.531750911,-0.30027494600000004,american-dream-uk,0,0,0,0,0,0,0,0,0,0,0,0,0,0,1,0,0,1,0,1,1,0,0,1,0,0,0,0,0,1,2,1,1,0,0,0,0,0,0,0,0,0,0,0,0,0,0,0
333,403,255346170,Cricklewood railway station,51.5588293333,-0.21282269280000002,cricklewood-railway-station,9,5,4,6,11,2,3,4,3,7,8,9,8,3,6,11,1,7,13,5,8,9,6,8,9,9,4,11,7,9,5,12,18,9,9,7,1,0,0,0,0,0,0,0,0,0,0,0
334,404,1032667110136993,Girardo & Co,51.4811756,-0.21096079999999998,girardo-co,7,9,8,7,2,4,6,6,6,9,8,12,11,7,8,3,2,10,6,15,5,13,16,4,8,14,12,13,8,7,4,6,1,15,24,14,5,0,0,0,0,0,0,0,0,0,0,0
335,405,301658628,Lordship (ward),51.567,-0.081,lordship-ward,0,0,0,0,0,0,0,0,0,0,0,0,0,0,0,0,1,0,0,0,0,0,0,0,0,0,0,0,0,0,3,0,0,0,0,0,1,0,0,0,0,0,0,0,0,0,0,0
336,406,170904,K West Hotel & Spa,51.5025127377,-0.21684187600000002,k-west-hotel-spa,79,97,132,119,90,98,82,71,51,81,98,99,81,68,81,80,67,73,64,66,90,85,75,78,83,81,67,62,66,67,77,77,48,56,79,60,37,0,0,0,0,0,0,0,0,0,0,0
337,407,103295786760891,GMB Union,51.526538,-0.13527060000000002,gmb-union,1,0,0,1,0,0,0,0,2,0,0,0,1,2,8,3,0,1,1,1,0,0,0,0,0,1,1,1,0,0,0,1,0,3,0,0,0,0,0,0,0,0,0,0,0,0,0,0
338,408,282390487,Chislehurst railway station,51.4055946159,0.0572220564,chislehurst-railway-station,6,3,0,3,4,2,6,3,1,3,2,4,4,7,4,2,3,2,2,1,0,2,3,1,2,3,1,2,1,3,3,6,4,1,0,2,2,0,0,0,0,0,0,0,0,0,0,0
339,409,103312244439596,Beauty by Natasha,51.5039299,-0.24341,beauty-by-natasha,0,0,0,0,0,0,0,0,0,0,0,0,0,0,0,0,0,0,0,0,0,0,0,0,0,0,0,0,0,0,0,0,0,0,1,0,0,0,0,0,0,0,0,0,0,0,0,0
340,410,1033183313492720,DNA VR,51.548770000000005,-0.12853,dna-vr,0,0,0,0,0,1,2,8,3,6,8,7,0,2,6,4,0,1,5,5,4,9,6,3,3,13,13,7,8,11,6,8,4,6,5,3,0,0,0,0,0,0,0,0,0,0,0,0
341,411,221244372,Queen Charlotte's and Chelsea Hospital,51.51636242359999,-0.2371370764,queen-charlottes-and-chelsea-hospital,18,14,10,12,5,16,10,14,12,18,16,20,19,13,32,9,36,35,27,23,17,22,20,14,16,22,17,17,21,20,14,24,31,19,15,14,9,0,0,0,0,0,0,0,0,0,0,0
342,412,103328826406403,The Hendon,51.5811229,-0.22675746670000002,the-hendon,0,0,0,0,4,3,5,1,2,0,1,5,6,1,5,10,11,7,9,4,5,4,5,7,1,4,5,2,5,5,4,5,4,5,2,0,1,0,0,0,0,0,0,0,0,0,0,0
343,413,103329891154778,Clean Now,51.42788,-0.02915,clean-now,0,0,0,0,0,0,0,0,0,0,0,0,0,0,0,0,0,0,0,0,0,0,0,0,0,0,0,0,0,0,0,0,0,0,0,1,0,0,0,0,0,0,0,0,0,0,0,0
344,414,418964477,"Upper Clapton, Redbridge, United Kingdom",51.5667,-0.05,upper-clapton-redbridge-united-kingdom,0,0,0,0,0,0,0,0,0,0,0,0,0,0,0,0,0,0,0,0,0,2,1,0,0,0,0,0,0,0,0,0,0,0,0,0,0,0,0,0,0,0,0,0,0,0,0,0
345,415,259571839,"Kew, Surrey, United Kingdom",51.4823565966,-0.2861188267,kew-surrey-united-kingdom,8,11,20,36,33,51,39,35,33,46,30,47,43,69,59,71,76,77,77,92,97,97,61,98,64,102,99,139,123,88,92,116,73,80,53,46,28,0,0,0,0,0,0,0,0,0,0,0
346,416,288289525,The Fox & Hounds,51.460901299999996,-0.21782449999999998,the-fox-hounds,3,6,6,10,6,0,0,0,0,0,0,0,0,0,0,0,0,0,0,0,0,0,0,0,0,0,0,0,0,0,2,5,5,6,10,8,1,0,0,0,0,0,0,0,0,0,0,0
347,417,228533361,"Tottenham, Redbridge, United Kingdom",51.602067397700004,-0.0675197026,tottenham-redbridge-united-kingdom,9,12,6,6,7,7,4,5,8,21,5,9,6,15,30,32,52,43,15,29,14,13,14,14,9,36,129,344,497,200,140,113,43,98,73,55,56,0,0,0,0,0,0,0,0,0,0,0
348,418,1033506616727612,Avanti Schools Trust,51.579568440100005,-0.2888265036,avanti-schools-trust,0,0,0,0,0,0,0,0,0,0,1,0,0,0,1,0,0,0,1,0,0,0,0,0,0,0,0,0,1,0,0,0,1,0,0,0,0,0,0,0,0,0,0,0,0,0,0,0
349,419,218897450,"Earls Court, Newham, United Kingdom",51.49146980020001,-0.1929594276,earls-court-newham-united-kingdom,1,1,4,3,4,3,2,107,105,99,43,80,75,94,66,85,47,40,250,173,202,194,152,172,77,105,316,205,98,187,43,43,35,62,58,67,46,0,0,0,0,0,0,0,0,0,0,0
350,420,231331384,"Harlesden, Newham, United Kingdom",51.5363424331,-0.24795765879999998,harlesden-newham-united-kingdom,0,0,3,3,3,5,41,38,43,39,27,52,37,48,80,89,52,50,106,113,90,95,76,77,55,60,72,100,101,86,109,54,61,106,100,118,43,0,0,0,0,0,0,0,0,0,0,0
351,421,248016117,The Lord Nelson,51.491409999999995,-0.30855,the-lord-nelson,17,30,29,17,20,46,58,6,13,13,17,8,9,13,8,19,50,26,46,8,17,22,11,16,12,14,7,4,8,14,8,4,11,5,11,8,2,0,0,0,0,0,0,0,0,0,0,0
352,422,276373577,"Raynes Park, Bromley, United Kingdom",51.4,-0.23333299999999998,raynes-park-bromley-united-kingdom,0,0,0,0,1,0,0,0,0,0,1,0,0,1,0,1,0,2,1,2,2,0,2,2,0,3,8,30,25,10,7,10,2,15,3,0,1,0,0,0,0,0,0,0,0,0,0,0
353,423,1100081,Jamboree,51.5115043446,-0.0429676568,jamboree,55,61,59,38,37,31,26,25,33,42,44,32,32,31,84,14,6,7,0,4,2,2,2,33,164,109,119,95,67,38,108,24,32,70,36,28,19,0,0,0,0,0,0,0,0,0,0,0
354,425,103370604414306,Ramos Motos Kingston,51.4136436325,-0.2867596531,ramos-motos-kingston,0,0,0,0,0,0,0,0,0,0,0,0,0,0,0,0,0,0,0,0,0,0,0,0,0,0,0,0,0,0,0,0,0,0,0,0,1,0,0,0,0,0,0,0,0,0,0,0
355,426,103382137669707,Crispy Plus,51.50662,-0.23367,crispy-plus,0,0,0,0,0,0,0,0,0,0,0,0,0,0,0,0,0,0,0,0,0,0,0,0,0,0,0,0,0,0,0,2,2,5,0,2,0,0,0,0,0,0,0,0,0,0,0,0
356,427,1019751870,Wick (ward),51.547,-0.034,wick-ward,0,0,0,0,0,0,0,0,0,0,0,0,0,0,0,0,0,0,0,0,1,0,0,0,0,0,0,0,0,0,1,1,0,0,0,0,0,0,0,0,0,0,0,0,0,0,0,0
357,428,103417824459211,Tooting barbers,51.425331197,-0.1641445205,tooting-barbers,0,0,0,0,0,0,0,0,0,0,0,0,0,0,0,0,0,0,0,0,0,0,0,0,0,0,0,0,0,0,0,0,0,0,0,0,1,0,0,0,0,0,0,0,0,0,0,0
358,429,103446144346356,Tottenham Brewing Co,51.6070636417,-0.060789585099999995,tottenham-brewing-co,0,0,0,0,0,0,0,0,0,0,0,0,0,0,0,0,0,0,0,0,0,0,0,0,0,0,0,0,0,0,0,0,10,21,3,2,0,0,0,0,0,0,0,0,0,0,0,0
359,430,1029853709,Apostolic Nunciature to Great Britain,51.4361,-0.2239,apostolic-nunciature-to-great-britain,0,0,0,0,0,0,0,0,0,0,1,0,0,0,0,0,0,0,0,1,0,1,0,0,0,0,0,0,0,0,0,0,0,0,0,0,0,0,0,0,0,0,0,0,0,0,0,0
360,431,227959400,Woolwich Ferry,51.4961,0.062,woolwich-ferry,50,33,63,100,83,77,73,98,79,70,47,31,43,57,59,58,75,53,77,65,65,52,17,16,18,39,28,33,41,26,35,49,59,53,40,35,10,0,0,0,0,0,0,0,0,0,0,0
361,432,456506574,Crystal Palace F.C.,51.3983333333,-0.0855555556,crystal-palace-fc,0,0,0,0,0,0,0,0,0,0,0,0,0,0,0,0,0,0,0,0,0,0,0,0,0,0,0,0,0,0,0,0,0,0,0,0,1,0,0,0,0,0,0,0,0,0,0,0
362,433,103472017751264,Bad Axe Throwing,51.419467299999994,-0.1620159,bad-axe-throwing,0,0,0,0,0,0,0,0,0,0,0,0,0,0,0,0,0,0,0,0,0,0,0,0,0,0,0,0,0,0,0,0,0,0,16,16,11,0,0,0,0,0,0,0,0,0,0,0
363,435,2445575,The Albert Kingston,51.4161850543,-0.2840475957,the-albert-kingston,11,5,9,17,19,12,15,14,12,4,15,35,16,17,16,15,7,7,11,11,23,27,25,26,21,19,21,21,17,24,17,14,18,14,20,22,10,0,0,0,0,0,0,0,0,0,0,0
364,436,10349463618,Don't Panic,51.53167,-0.07047,dont-panic,0,0,0,0,0,0,0,0,0,0,0,0,0,0,0,0,0,0,0,0,0,0,1,2,2,3,1,4,4,9,19,15,13,15,4,5,8,0,0,0,0,0,0,0,0,0,0,0
365,437,103495124410887,"War Horse, Troubadour Wembley Park Theatre",51.5610992425,-0.2817065632,war-horse-troubadour-wembley-park-theatre,0,0,0,0,0,0,0,0,0,0,0,0,0,0,0,0,0,0,0,0,0,0,0,0,0,0,0,0,0,0,0,0,0,20,48,0,0,0,0,0,0,0,0,0,0,0,0,0
366,438,1025876345,His Lovely Home,51.6116167,-0.19187356670000003,his-lovely-home,40,6,11,29,14,11,44,8,2,8,7,28,10,9,7,0,4,2,14,16,18,9,4,7,10,10,14,22,18,19,13,2,10,1,2,0,0,0,0,0,0,0,0,0,0,0,0,0
367,439,1004680389,Pollards Hill Library,51.3989723833,-0.127913311,pollards-hill-library,0,0,1,0,0,0,1,0,1,2,0,0,0,0,0,3,0,2,0,1,0,0,2,0,0,0,1,0,1,2,1,0,4,0,2,0,0,0,0,0,0,0,0,0,0,0,0,0
368,440,1035083696558231,Sidi Bou - London,51.51531,-0.30211,sidi-bou-london,2,4,3,2,1,3,4,4,6,1,0,1,1,5,5,1,4,10,1,3,2,3,10,4,2,1,2,5,5,6,4,2,2,4,4,3,1,0,0,0,0,0,0,0,0,0,0,0
369,441,103514138869,MATCHESFASHION Woman,51.51032,-0.14904,matchesfashion-woman,0,0,0,0,0,0,0,0,0,0,0,0,0,0,0,0,0,0,0,0,1,0,8,7,5,6,3,7,8,6,2,2,8,11,21,13,7,0,0,0,0,0,0,0,0,0,0,0
370,442,103517287742924,Muhurito Deptford,51.475089000000004,-0.0262779,muhurito-deptford,0,0,0,0,0,0,0,0,0,0,0,0,0,0,0,0,0,0,0,0,0,0,0,0,0,0,0,0,0,0,0,0,0,2,3,0,0,0,0,0,0,0,0,0,0,0,0,0
371,443,103565271176213,Faces by BAE,51.5685700066,-0.13638,faces-by-bae,0,0,0,0,0,0,0,0,0,0,0,0,0,0,0,0,0,0,0,0,0,0,0,0,0,0,0,0,0,0,0,0,0,0,0,0,4,0,0,0,0,0,0,0,0,0,0,0
372,444,103573314411641,Mary Poppins at Prince Edward Theatre,51.51376333,-0.13077783,mary-poppins-at-prince-edward-theatre,0,0,0,0,0,0,0,0,0,0,0,0,0,0,0,0,0,0,0,0,0,0,0,0,0,0,0,0,0,0,0,0,0,1,376,420,245,0,0,0,0,0,0,0,0,0,0,0
373,448,5120579,Edgwarebury Park,51.6253309133,-0.2829548208,edgwarebury-park,4,6,4,6,13,5,10,19,9,5,2,6,2,1,2,6,9,4,3,13,4,5,6,3,6,6,3,2,3,8,4,10,18,24,8,2,0,0,0,0,0,0,0,0,0,0,0,0
374,449,671603800,London Town,51.5857919424,-0.0609899408,london-town,0,0,0,0,0,0,0,0,0,0,0,0,0,0,0,0,0,0,0,0,0,0,0,0,1,3,0,0,1,2,0,1,55,324,324,273,122,0,0,0,0,0,0,0,0,0,0,0
375,450,227965142,"Portobello Market, Nothing Hill Gate",51.5128282876,-0.2013231219,portobello-market-nothing-hill-gate,1,1,48,97,38,32,29,44,2,8,3,1,3,5,6,14,5,2,10,5,4,2,45,288,370,1003,2308,1390,1266,1206,1360,1015,78,1,0,1,2,0,0,0,0,0,0,0,0,0,0,0
376,452,213179920,Belgravia,51.49795,-0.1545305556,belgravia,0,0,0,0,0,0,0,0,0,0,0,0,0,0,0,0,0,0,0,0,0,328,1087,1107,974,1263,1624,1425,1726,1540,1092,1025,959,1527,1498,1418,515,0,0,0,0,0,0,0,0,0,0,0
377,454,267471223,"The Unicorn Pub, Ilford",51.59177575100001,0.0629517005,the-unicorn-pub-ilford,0,1,0,0,0,1,2,1,0,1,1,2,0,2,0,1,3,1,3,1,4,1,0,0,0,0,1,1,0,1,1,0,1,0,0,0,1,0,0,0,0,0,0,0,0,0,0,0
378,455,933745330,BBC News සිංහල,51.5185043521,-0.1437814909,bbc-news,0,0,0,0,0,0,0,0,0,0,0,0,0,0,0,0,0,0,1,0,0,1,0,1,2,0,0,1,0,0,0,0,0,8,0,0,0,0,0,0,0,0,0,0,0,0,0,0
379,456,103706533026982,Wimbledon Driving School,51.411770000000004,-0.20828000000000002,wimbledon-driving-school,0,0,0,0,0,0,0,0,0,0,0,0,0,0,0,0,0,1,2,0,1,3,6,10,1,12,11,14,11,9,4,10,1,0,0,0,0,0,0,0,0,0,0,0,0,0,0,0
380,460,570274693,"Richmond, London",51.456,-0.301,richmond-london,2286,1934,81,0,0,7,0,0,0,0,0,0,0,0,0,0,3,5,0,0,0,0,0,0,0,0,0,0,2,1,0,6,33,15,10,1,1,0,0,0,0,0,0,0,0,0,0,0
381,461,233770342,Clayhall,51.5906,0.0604,clayhall,7,29,35,39,69,71,54,44,52,44,47,78,53,54,45,39,36,37,37,46,40,34,43,33,38,32,27,33,17,15,18,31,30,30,28,40,18,0,0,0,0,0,0,0,0,0,0,0
382,462,229037766,"Royal Botanic Gardens, Kew",51.4743265961,-0.2952575684,royal-botanic-gardens-kew,0,0,0,0,0,0,0,0,0,0,0,0,0,0,0,0,0,0,0,0,0,0,0,0,0,0,0,0,0,0,0,0,0,0,1241,3489,1139,0,0,0,0,0,0,0,0,0,0,0
383,463,215793871,Holland Park,51.503781,-0.20441700000000002,holland-park,0,0,0,0,0,0,0,0,0,0,0,0,0,0,0,0,774,2360,2167,1911,1915,1919,1901,1270,1287,1154,1494,2867,2434,2401,2386,1942,1734,1992,1894,1458,741,0,0,0,0,0,0,0,0,0,0,0
384,464,1019862172,The Coconut Collaborative,51.4970131,-0.1298844,the-coconut-collaborative,0,0,0,1,0,1,0,0,0,1,1,0,0,0,0,0,0,0,0,0,0,0,0,0,1,0,0,0,0,0,1,2,1,0,1,0,0,0,0,0,0,0,0,0,0,0,0,0
385,465,260204656,Loxford,51.5481,0.08184,loxford,0,0,0,0,0,0,0,5,15,2,13,22,17,15,36,33,6,6,5,5,7,4,9,3,1,6,6,2,7,7,0,2,4,3,6,3,3,0,0,0,0,0,0,0,0,0,0,0
386,466,732619759,London Borough of Camden,51.534961111099996,-0.1037416667,london-borough-of-camden,1471,2109,2354,1579,1548,666,733,741,858,741,613,746,745,513,388,551,572,510,493,439,426,424,380,366,323,746,3050,1703,1298,604,348,405,585,202,15,29,8,0,0,0,0,0,0,0,0,0,0,0
387,467,316371923,Clapham Common,51.4578,-0.1494,clapham-common,0,0,0,0,0,0,0,0,0,0,0,0,0,0,0,0,0,0,0,0,444,2745,2622,2572,1867,2056,1941,2158,2650,2644,2478,3391,2069,2457,1848,1578,837,0,0,0,0,0,0,0,0,0,0,0
388,468,1016248306,St. George Hotel Wembley,51.55527,-0.28653,st-george-hotel-wembley,8,3,2,6,2,1,9,2,0,2,3,3,5,4,7,2,2,1,0,0,4,6,1,3,4,5,3,5,1,3,0,1,3,5,4,8,1,0,0,0,0,0,0,0,0,0,0,0
389,469,229678319,The Moon And Stars Pub,51.4127155827,-0.050931503899999994,the-moon-and-stars-pub,3,1,2,2,1,2,5,0,3,1,3,2,0,1,1,8,7,4,1,5,6,1,3,1,4,2,3,4,3,48,17,35,13,68,25,41,1,0,0,0,0,0,0,0,0,0,0,0
390,470,263842016,"Our Lady of Lourdes, Wanstead",51.5747161,0.0241489,our-lady-of-lourdes-wanstead,0,1,1,1,4,0,1,1,2,0,1,1,1,0,0,0,1,0,4,0,2,1,2,0,0,0,0,0,1,1,0,0,2,3,5,3,0,0,0,0,0,0,0,0,0,0,0,0
391,471,275983323,Alperton Community School,51.5433,-0.29277800000000004,alperton-community-school,0,2,0,1,1,1,0,0,3,1,0,0,0,0,2,4,2,15,4,0,1,4,5,2,1,15,3,0,1,1,1,1,8,3,4,2,0,0,0,0,0,0,0,0,0,0,0,0
392,472,1012019382,Ratcliff,51.511,-0.045,ratcliff,0,0,0,0,1,0,0,2,0,0,1,0,0,1,0,0,1,0,2,1,0,0,0,60,32,9,14,1,0,1,1,1,1,0,0,2,2,0,0,0,0,0,0,0,0,0,0,0
393,473,103848557696961,Hudsons Roofing Specialists,51.48256,0.0069,hudsons-roofing-specialists,0,0,0,0,0,0,0,0,0,0,0,0,0,0,0,0,0,0,0,0,0,0,0,0,0,0,0,0,0,0,0,0,0,1,4,1,0,0,0,0,0,0,0,0,0,0,0,0
394,474,103859964321337,Metoscoffeehouse,51.4679,-0.26642,metoscoffeehouse,0,0,0,0,0,0,0,0,0,0,0,0,0,0,0,0,0,0,0,0,0,0,0,0,0,0,0,0,0,0,0,0,0,1,28,10,11,0,0,0,0,0,0,0,0,0,0,0
395,475,1038724792951569,Ham Common Woods,51.4344050042,-0.3094259272,ham-common-woods,0,0,0,0,0,0,0,0,0,0,0,0,0,0,0,0,0,1,5,6,1,9,21,0,0,0,0,1,4,2,1,3,11,3,3,2,2,0,0,0,0,0,0,0,0,0,0,0
396,477,1282035,Blue Anchor,51.48956,-0.23084000000000002,blue-anchor,16,17,43,118,85,69,80,55,52,35,27,35,21,45,56,97,89,84,78,44,59,46,21,25,14,47,57,78,56,46,65,74,56,22,22,26,11,0,0,0,0,0,0,0,0,0,0,0
397,478,103881504418463,The Curl Bar London,51.5866854,-0.12173219999999998,the-curl-bar-london,0,0,0,0,0,0,0,0,0,0,0,0,0,0,0,0,0,0,0,0,0,0,0,0,0,0,0,0,0,0,0,0,0,0,4,4,21,0,0,0,0,0,0,0,0,0,0,0
398,479,103882410146148,Fiza&co UK,51.58936,-0.10757,fizaco-uk,0,0,0,0,0,0,1,0,1,0,0,0,1,0,0,0,0,0,1,0,0,0,0,0,0,0,0,0,0,0,0,0,0,0,18,0,0,0,0,0,0,0,0,0,0,0,0,0
399,480,215862438,Satay Bar Brixton,51.4613955,-0.1143115,satay-bar-brixton,18,14,15,21,20,11,25,13,16,13,9,4,15,10,10,12,16,12,16,23,19,7,9,20,22,14,28,22,24,19,31,25,14,21,24,33,6,0,0,0,0,0,0,0,0,0,0,0
400,481,103893827735565,Super Kicker - Football,51.5072299584,-0.1276255029,super-kicker-football,0,0,0,0,0,0,0,0,0,0,0,0,0,0,0,0,0,0,0,0,0,0,0,0,0,0,0,0,0,0,0,0,0,0,1,0,0,0,0,0,0,0,0,0,0,0,0,0
401,482,1039521599469504,Bamboo lounge cafe entertainment,51.528254582799995,-0.2710918248,bamboo-lounge-cafe-entertainment,13,24,13,17,26,46,40,22,11,34,23,31,19,41,19,18,32,9,17,29,13,23,22,20,18,30,45,24,28,30,30,41,28,41,54,62,18,0,0,0,0,0,0,0,0,0,0,0
402,483,1024684177,The Golden Lion Sydenham,51.42556,-0.04767,the-golden-lion-sydenham,2,2,2,6,3,4,7,3,0,0,7,5,3,3,3,3,3,18,10,2,0,5,2,1,1,1,3,2,0,3,0,1,0,10,1,2,0,0,0,0,0,0,0,0,0,0,0,0
403,484,225979635,Shadwell,51.5071,-0.0466,shadwell,226,219,240,265,283,249,244,234,232,314,288,289,338,298,288,269,221,190,193,155,170,197,153,163,173,149,256,295,194,172,148,149,170,161,119,109,85,0,0,0,0,0,0,0,0,0,0,0
404,485,32366,Wandsworth Common,51.45,-0.1695,wandsworth-common,0,0,0,0,1,0,0,0,0,2,0,0,0,0,0,0,1,0,1,0,0,0,0,2,1,4,5,159,273,359,361,320,348,462,519,356,190,0,0,0,0,0,0,0,0,0,0,0
405,486,103985681022588,The Oaks Shopping,51.50493,-0.26674000000000003,the-oaks-shopping,0,0,0,0,0,0,0,0,0,0,0,0,0,0,0,0,0,0,0,0,0,0,0,0,0,0,0,0,0,0,0,0,0,1,0,0,0,0,0,0,0,0,0,0,0,0,0,0
406,489,228768312,The Blind Beggar,51.52,-0.0569,the-blind-beggar,38,51,39,59,42,51,53,31,110,177,73,64,44,35,47,53,52,53,92,72,58,61,52,34,25,31,32,24,24,29,24,33,23,37,24,21,10,0,0,0,0,0,0,0,0,0,0,0
407,490,145786196,Incognito Theatre,51.615975067799994,-0.1515806049,incognito-theatre,0,0,0,0,0,1,0,0,1,0,0,1,5,0,6,0,3,0,0,0,1,0,0,3,4,0,0,0,2,3,1,2,2,1,2,1,4,0,0,0,0,0,0,0,0,0,0,0
408,491,231623,Battersea Park,51.4795035748,-0.1566614775,battersea-park,0,0,1379,1518,3025,2155,2676,2300,2016,3062,4680,1494,1718,1797,1932,3085,3240,2308,2540,1915,2696,2590,3697,1225,1345,1882,2394,2704,2162,3022,2625,1901,1686,861,10,3,5,0,0,0,0,0,0,0,0,0,0,0
409,492,214616096,St John's Wood,51.533963892799996,-0.17152885629999998,st-johns-wood,508,479,607,740,777,802,531,192,1,1,1,2,0,1,0,2,0,4,1,1,0,3,3,2,4,3,3,267,612,641,676,569,508,813,822,708,326,0,0,0,0,0,0,0,0,0,0,0
410,493,251275091,Downham,51.4257,0.0058,downham,21,10,8,7,13,12,4,13,10,20,8,8,12,32,5,14,13,11,12,3,12,11,9,19,8,10,10,17,13,8,16,28,46,26,21,32,9,0,0,0,0,0,0,0,0,0,0,0
411,494,893847324,Morden Hall Park,51.4011,-0.1875,morden-hall-park,305,190,269,512,397,385,339,384,238,285,330,182,193,253,269,335,456,406,312,353,333,388,325,238,241,291,269,389,302,435,373,335,285,347,256,234,94,0,0,0,0,0,0,0,0,0,0,0
412,495,228752135,Mottingham,51.4337,0.0365,mottingham,51,57,64,79,72,95,52,53,61,79,67,96,68,51,47,58,77,69,90,82,81,60,80,100,55,77,63,52,68,52,70,72,116,83,96,128,56,0,0,0,0,0,0,0,0,0,0,0
413,496,926015192,Brent Reservoir,51.57,-0.247,brent-reservoir,10,11,31,54,36,36,37,19,13,18,23,19,10,17,18,38,73,34,46,27,40,41,23,11,30,21,10,13,15,22,10,11,23,29,8,29,6,0,0,0,0,0,0,0,0,0,0,0
414,498,239924832,Brunswick Park,51.62,-0.15,brunswick-park,6,2,4,4,8,18,8,24,12,17,10,13,9,8,12,13,21,20,19,31,35,42,27,28,35,17,13,14,8,25,15,23,21,22,14,21,4,0,0,0,0,0,0,0,0,0,0,0
415,500,213718059,Hackney Wick,51.542,-0.023,hackney-wick,0,0,0,0,0,0,0,0,0,0,0,0,0,0,0,0,2040,2499,2432,2278,2108,2067,1787,1567,1627,1856,2104,2098,2505,2363,2541,1955,1610,1981,1696,1272,667,0,0,0,0,0,0,0,0,0,0,0
416,501,228446745,Little Ilford,51.5509,0.0549,little-ilford,11,26,20,3,7,22,24,12,15,15,14,24,14,14,11,18,11,12,23,31,51,32,48,36,34,34,36,32,12,19,20,11,26,47,47,51,19,0,0,0,0,0,0,0,0,0,0,0
417,502,964755191,Beckenham Town F.C.,51.39268194,-0.02876389,beckenham-town-fc,3,1,2,9,11,4,10,7,16,4,9,0,6,4,2,9,8,0,16,3,4,7,1,1,11,4,6,3,4,0,7,8,14,3,2,0,2,0,0,0,0,0,0,0,0,0,0,0
418,503,1040496679421216,Barnet Copthall Leisure Centre,51.604929455,-0.22634428329999998,barnet-copthall-leisure-centre,0,0,0,0,0,0,0,0,0,1,1,2,1,3,1,0,2,2,1,2,4,1,1,0,0,0,0,0,2,6,4,1,3,4,4,1,2,0,0,0,0,0,0,0,0,0,0,0
419,504,227611230,Gipsy Hill,51.4229,-0.0848,gipsy-hill,125,119,195,171,145,150,123,106,125,156,145,180,112,142,135,124,164,153,117,100,96,120,127,82,113,115,116,87,151,148,120,91,162,137,132,153,56,0,0,0,0,0,0,0,0,0,0,0
420,505,877682202,Chelsea F.C.,51.4816666667,-0.19111111109999998,chelsea-fc,0,0,0,0,0,0,0,0,0,0,0,0,0,0,0,0,0,0,0,0,0,0,0,0,0,0,0,0,0,0,0,0,2,0,0,0,0,0,0,0,0,0,0,0,0,0,0,0
421,506,792445664,Cutty Sark,51.482777777799996,-0.0097222222,cutty-sark,91,145,154,178,198,201,417,297,395,628,746,716,610,654,0,0,0,1,0,0,7,0,0,0,0,0,0,0,0,0,0,0,9,0,0,0,0,0,0,0,0,0,0,0,0,0,0,0
422,507,3591103,North Kensington,51.5238,-0.21959800000000002,north-kensington,64,144,154,205,210,502,165,127,119,86,86,89,81,116,57,79,103,149,181,123,156,157,141,124,182,143,42,65,108,131,82,148,151,123,137,118,40,0,0,0,0,0,0,0,0,0,0,0
423,508,225866383,Stamford Hill,51.5705,-0.0727,stamford-hill,257,211,318,251,259,258,298,247,359,392,337,343,350,332,335,250,279,314,258,261,283,277,235,270,298,292,271,207,232,181,201,169,226,218,251,235,109,0,0,0,0,0,0,0,0,0,0,0
424,509,229411807,Canonbury,51.5437,-0.0883,canonbury,257,195,226,281,245,243,196,244,221,301,253,333,221,269,193,246,242,157,154,156,139,171,283,140,129,121,228,140,130,120,112,122,206,269,253,228,97,0,0,0,0,0,0,0,0,0,0,0
425,510,1040720625988847,Asda,51.5149710762,0.0577001424,asda,0,0,0,0,0,0,0,0,0,0,0,0,6,0,2,0,0,1,0,2,0,1,4,2,5,3,1,2,3,3,3,6,0,3,7,1,0,0,0,0,0,0,0,0,0,0,0,0
426,511,244507301,"Stonebridge, London",51.5412,-0.2638,stonebridge-london,43,58,80,49,58,75,73,71,86,69,93,91,93,69,46,41,84,69,105,131,131,122,113,132,116,139,92,51,74,76,61,121,64,72,72,95,32,0,0,0,0,0,0,0,0,0,0,0
427,512,285671321,St Bonaventure's,51.5387624083,0.024122909799999998,st-bonaventures,0,0,0,0,1,0,1,5,0,2,0,2,2,0,2,0,1,0,22,1,3,2,2,2,1,3,1,2,0,4,1,0,2,1,2,1,0,0,0,0,0,0,0,0,0,0,0,0
428,513,738004215,Scadbury Park,51.41633,0.08851,scadbury-park,1,0,0,0,12,22,9,20,29,21,17,11,4,31,16,29,39,18,18,18,3,0,0,0,0,0,0,9,0,0,0,0,0,0,0,0,0,0,0,0,0,0,0,0,0,0,0,0
429,515,6186697,Palace of Westminster,51.4994343859,-0.1244705915,palace-of-westminster,0,0,0,0,0,0,0,0,0,0,0,0,0,0,0,0,0,0,0,643,898,1005,1133,1323,1695,1207,1594,1230,1391,1161,981,953,1036,905,632,660,375,0,0,0,0,0,0,0,0,0,0,0
430,516,217609912,Southwark,51.5025022173,-0.0975631207,southwark,591,478,610,537,656,494,417,470,471,528,558,454,507,899,938,838,779,711,515,561,619,511,621,506,585,702,1564,1147,1206,896,803,699,621,673,766,644,307,0,0,0,0,0,0,0,0,0,0,0
431,517,585838555,Best Dress 2 Impress Bridal,51.610094200000006,-0.0176747,best-dress-2-impress-bridal,0,0,0,0,0,0,0,0,0,0,0,0,0,0,0,0,0,0,0,0,0,0,0,0,0,0,0,0,0,0,0,7,1,0,0,0,0,0,0,0,0,0,0,0,0,0,0,0
432,518,32771,Spitalfields,51.5166,-0.075,spitalfields,0,0,0,0,0,0,0,0,0,0,0,0,0,0,0,0,0,0,0,0,0,0,0,0,0,0,0,0,0,0,0,0,0,0,0,0,373,0,0,0,0,0,0,0,0,0,0,0
433,519,216140697,Vauxhall,51.4903,-0.1193,vauxhall,159,149,201,563,1290,1191,1303,977,958,1044,894,966,1050,1045,914,1139,1086,975,1154,785,926,1006,880,881,1012,646,678,1001,1065,880,805,832,764,1077,935,910,480,0,0,0,0,0,0,0,0,0,0,0
434,520,222529201,White Hart Lane,51.6033333333,-0.0658333333,white-hart-lane,0,0,1,0,0,0,0,1,0,0,0,0,0,0,0,0,0,0,0,0,0,0,0,0,0,0,0,0,119,135,40,221,204,0,0,0,0,0,0,0,0,0,0,0,0,0,0,0
435,521,213583010,"Queen's Park, London",51.5288070777,-0.211741137,queens-park-london,666,702,990,1140,840,792,868,735,747,931,838,995,816,792,647,698,803,616,574,493,552,494,457,482,454,517,620,605,682,756,623,616,688,845,840,852,379,0,0,0,0,0,0,0,0,0,0,0
436,522,43222354,Mayfair,51.5087958794,-0.1471996307,mayfair,0,0,0,0,0,0,0,0,0,0,0,0,0,0,0,0,0,0,0,0,0,0,0,0,0,0,0,0,695,5455,5680,5062,5234,5588,5349,4634,1868,0,0,0,0,0,0,0,0,0,0,0
437,523,228430276,Shortlands,51.3983,0.0039,shortlands,48,41,39,50,49,41,50,41,43,51,55,73,69,41,47,36,19,37,64,40,46,58,44,93,48,81,55,36,25,44,24,56,48,41,34,49,13,0,0,0,0,0,0,0,0,0,0,0
438,524,1019601629,Play Football,51.6019707,-0.18599000000000002,play-football,1,1,0,0,0,0,0,1,1,0,0,2,0,1,0,1,2,1,1,0,3,1,0,0,2,1,0,1,0,1,0,1,0,0,1,5,1,0,0,0,0,0,0,0,0,0,0,0
439,525,272227,The Half Moon Putney,51.467317641899996,-0.2200648252,the-half-moon-putney,105,99,116,145,153,124,109,115,102,136,127,91,151,144,188,108,261,178,115,147,167,190,114,122,137,169,177,147,179,158,150,148,149,153,215,122,69,0,0,0,0,0,0,0,0,0,0,0
440,526,104136306286093,Nuffield Health,51.4198310396,-0.2043598103,nuffield-health,12,10,18,25,7,6,6,8,11,4,24,27,26,27,17,17,11,9,9,8,16,8,8,22,18,17,19,30,25,11,15,21,28,33,19,8,12,0,0,0,0,0,0,0,0,0,0,0
441,527,104137224420857,Libano Restaurant,51.44665,-0.14962,libano-restaurant,0,0,0,0,0,0,0,0,0,0,0,0,0,0,0,0,0,0,0,0,0,0,0,0,0,0,0,0,0,0,0,0,0,0,0,1,11,0,0,0,0,0,0,0,0,0,0,0
442,528,104150964323940,Omega Yamaha,51.55002,-0.24065999999999999,omega-yamaha,0,0,0,0,0,0,0,0,0,0,0,0,0,0,0,0,0,0,0,0,0,0,0,0,0,0,0,0,0,0,0,0,0,17,11,2,0,0,0,0,0,0,0,0,0,0,0,0
443,530,230398784,Morden Park,51.3936,-0.2052,morden-park,43,25,41,52,70,58,104,1485,118,64,249,37,40,34,38,36,56,49,77,854,82,64,139,41,45,32,39,45,76,65,73,642,47,187,111,53,16,0,0,0,0,0,0,0,0,0,0,0
444,532,1041833359332577,ZEMRA,51.5189065913,-0.1737114577,zemra,0,0,0,0,0,0,0,0,0,0,0,0,0,0,0,0,0,0,0,0,0,0,0,0,0,0,0,0,0,0,0,0,0,0,2,0,0,0,0,0,0,0,0,0,0,0,0,0
445,533,1041901819264336,Harvester,51.503547,0.004072,harvester,0,0,0,0,0,0,1,0,0,0,0,0,0,0,0,0,0,0,0,0,0,1,0,3,0,0,0,2,0,0,0,0,1,0,1,1,0,0,0,0,0,0,0,0,0,0,0,0
446,534,104197936302819,Guard Dog Security UK,51.4328117,0.016890000000000002,guard-dog-security-uk,0,0,0,0,0,0,0,0,0,0,0,0,0,0,1,0,0,1,0,0,1,1,1,3,0,1,0,0,0,0,1,1,1,1,0,1,0,0,0,0,0,0,0,0,0,0,0,0
447,535,1042233475966119,Memon Connect,51.44609439999999,-0.14525710000000003,memon-connect,0,0,0,0,0,0,0,0,0,0,0,0,0,0,0,0,0,0,0,0,0,0,0,12,0,0,0,0,0,0,0,0,0,0,0,0,0,0,0,0,0,0,0,0,0,0,0,0
448,536,483047616,LOCband Plagiocephaly Journeys & Support,51.4139359346,-0.2979826927,locband-plagiocephaly-journeys-support,0,0,0,0,1,0,0,0,0,0,0,0,0,0,0,0,0,0,0,0,0,0,0,0,0,0,1,0,0,0,0,0,0,0,0,0,0,0,0,0,0,0,0,0,0,0,0,0
449,537,104232707626335,Last Days of Disco,51.4647909,-0.130168,last-days-of-disco,0,0,0,0,0,0,0,0,0,0,0,0,0,0,0,0,0,0,0,0,0,0,0,0,0,0,0,0,0,0,0,0,0,23,57,34,16,0,0,0,0,0,0,0,0,0,0,0
450,538,104243827708593,Crystal Palace Football Club,51.3982518505,-0.08572664390000001,crystal-palace-football-club,0,0,0,0,0,0,0,0,0,0,0,0,0,0,0,0,0,0,0,0,0,0,0,0,0,0,0,0,0,0,0,0,0,0,6,40,51,0,0,0,0,0,0,0,0,0,0,0
451,539,1042562349220629,Bounce Mill Hill,51.608888604099995,-0.2221164955,bounce-mill-hill,0,0,0,7,4,6,2,1,3,0,5,5,5,1,4,3,2,3,1,0,0,0,0,0,5,0,1,1,1,0,0,1,14,1,0,0,1,0,0,0,0,0,0,0,0,0,0,0
452,540,233102200,Pollards Hill,51.4092,-0.1083,pollards-hill,17,13,9,12,18,7,12,31,31,21,22,33,27,27,31,33,39,43,34,7,11,14,17,12,10,10,14,8,9,16,36,10,14,12,51,29,16,0,0,0,0,0,0,0,0,0,0,0
453,541,38505899,Caraway Restaurant London,51.575071578,0.06617904,caraway-restaurant-london,2,4,8,0,0,4,1,3,1,2,3,4,1,4,10,1,2,2,3,1,3,8,4,1,6,2,5,6,7,0,3,1,1,1,2,0,1,0,0,0,0,0,0,0,0,0,0,0
454,542,1042819702519615,Neasden Shoppping Centre,51.5573,-0.24742600000000003,neasden-shoppping-centre,0,0,0,0,0,1,0,0,1,0,0,1,2,0,1,2,0,1,4,2,7,5,0,5,4,1,1,0,0,0,0,0,0,0,0,0,0,0,0,0,0,0,0,0,0,0,0,0
455,543,271145807,The Swan,51.41263,-0.31083,the-swan,7,16,8,3,9,8,27,19,11,21,10,6,26,31,29,28,19,52,55,17,14,6,35,20,7,18,37,39,22,22,20,15,15,21,22,21,15,0,0,0,0,0,0,0,0,0,0,0
456,544,1030570875,Bombetta London,51.5809631,0.0213174,bombetta-london,65,32,43,32,37,62,83,71,54,64,47,58,46,40,42,53,38,51,29,39,37,31,20,21,30,26,30,24,15,20,18,41,21,11,49,14,4,0,0,0,0,0,0,0,0,0,0,0
457,546,284761402,"Lower Holloway, Redbridge, United Kingdom",51.5501251581,-0.1193338494,lower-holloway-redbridge-united-kingdom,0,1,1,0,0,0,0,1,0,1,0,0,1,0,0,0,1,0,0,0,0,0,0,4,0,0,0,1,2,1,1,2,0,9,3,4,2,0,0,0,0,0,0,0,0,0,0,0
458,547,104319922963884,BMF Richmond Park,51.452806395100005,-0.255398438,bmf-richmond-park,0,0,1,1,0,0,0,1,0,0,0,0,0,0,1,0,0,1,0,0,2,0,0,0,0,0,1,0,0,0,0,0,0,0,0,0,0,0,0,0,0,0,0,0,0,0,0,0
459,549,232226317,"Deptford, Newham, United Kingdom",51.4814546915,-0.0300645387,deptford-newham-united-kingdom,0,0,0,5,108,82,56,45,58,64,83,78,71,73,91,113,97,111,136,162,225,232,223,207,190,246,338,442,438,276,201,176,177,317,307,238,140,0,0,0,0,0,0,0,0,0,0,0
460,550,231672676,"Mitcham, Bromley, United Kingdom",51.4072,-0.16423,mitcham-bromley-united-kingdom,2,0,5,7,5,1,0,3,1,1,2,2,9,14,19,31,32,92,184,225,175,231,967,761,918,195,195,132,84,237,188,126,374,1022,514,178,102,0,0,0,0,0,0,0,0,0,0,0
461,551,104355900967646,Electric Brixton,51.460333536,-0.1165017056,electric-brixton,0,0,0,0,0,0,0,0,1,0,0,1,0,0,0,0,0,0,0,0,0,1,2,0,0,0,0,0,0,0,0,0,24,126,195,148,18,0,0,0,0,0,0,0,0,0,0,0
462,552,104358740926530,Alexandrapalacefunfair,51.593846,-0.1297,alexandrapalacefunfair,0,0,0,0,0,0,0,0,0,0,0,0,0,0,0,0,0,0,0,0,0,0,0,0,0,0,0,0,0,0,0,1,0,0,0,0,0,0,0,0,0,0,0,0,0,0,0,0
463,553,104361274380669,Verace Pizzeria&Restaurant,51.43635,-0.18694000000000002,verace-pizzeriarestaurant,0,0,0,0,0,0,0,0,0,0,0,0,0,0,0,0,0,0,0,0,0,0,0,0,0,0,0,0,0,0,0,0,0,0,0,2,0,0,0,0,0,0,0,0,0,0,0,0
464,554,1043628395659962,St Edward the Confessor Catholic Church,51.576579629099996,-0.1963907121,st-edward-the-confessor-catholic-church,0,0,1,0,2,0,0,0,0,0,1,4,1,0,1,3,4,3,2,0,3,0,0,0,1,2,2,1,4,0,0,0,0,2,1,1,2,0,0,0,0,0,0,0,0,0,0,0
465,555,1043644266025782,The Hill LTD,51.4376,-0.05446,the-hill-ltd,0,0,0,0,0,0,0,0,0,0,0,0,0,0,0,0,0,0,0,0,0,0,0,0,0,0,0,0,0,0,1,0,0,4,0,0,0,0,0,0,0,0,0,0,0,0,0,0
466,558,493666212,Merton Priory Chapter House,51.41416678939999,-0.18090963359999998,merton-priory-chapter-house,3,2,6,6,6,6,3,2,2,0,0,0,0,0,0,2,0,0,0,0,2,1,0,0,0,0,0,0,3,2,0,3,1,2,0,0,0,0,0,0,0,0,0,0,0,0,0,0
467,560,104380824355072,Remess Handicrafts,51.52948,-0.22163000000000002,remess-handicrafts,0,0,0,0,0,0,0,0,0,0,0,0,0,0,0,0,0,0,0,0,0,0,0,0,0,0,0,0,0,0,0,0,0,0,1,0,0,0,0,0,0,0,0,0,0,0,0,0
468,561,2703726,Emirates Stadium,51.555051545299996,-0.108473235,emirates-stadium,3505,2459,3474,3733,4517,1508,3054,2895,4296,3456,3651,4934,4275,2783,3833,5725,4181,1328,1459,3768,4912,3181,5417,6002,5252,2727,4285,3992,2833,1367,3281,4494,5563,4698,3568,4460,2810,0,0,0,0,0,0,0,0,0,0,0
469,563,215477068,Malvern House,51.5312408,-0.1178552,malvern-house,3,10,5,12,3,5,4,2,8,12,13,12,9,5,2,1,0,2,4,7,6,38,30,24,20,29,24,38,15,17,29,20,13,9,7,20,3,0,0,0,0,0,0,0,0,0,0,0
470,564,603520492,Craft London,51.5005600105,0.005209067,craft-london,41,66,84,74,71,56,67,40,47,41,28,38,28,32,51,64,59,55,40,56,43,33,34,13,31,32,23,14,19,25,13,29,29,38,25,16,7,0,0,0,0,0,0,0,0,0,0,0
471,565,1043970235762493,"Oxford Street, London",51.3924579,-0.3030589,oxford-street-london,1,0,0,0,0,0,0,1,1,0,1,2,0,0,0,1,0,1,0,1,1,4,33,13,1,2,0,3,1,5,3,101,73,24,61,54,13,0,0,0,0,0,0,0,0,0,0,0
472,566,1736444,Malaysia Hall,51.51228,-0.18571,malaysia-hall,37,31,46,43,51,37,21,16,23,23,43,57,21,15,14,24,23,32,24,24,30,16,25,27,20,29,24,29,24,25,21,30,26,21,17,0,0,0,0,0,0,0,0,0,0,0,0,0
473,567,104418181022135,Virgo Happy Floors,51.58477,-0.019430000000000003,virgo-happy-floors,0,0,0,0,0,0,0,0,0,0,0,0,0,0,0,0,0,0,0,0,0,0,0,0,0,0,0,0,0,0,0,0,0,0,1,0,0,0,0,0,0,0,0,0,0,0,0,0
474,569,1044254822436268,Huffkins Renowned Bakery and Tearooms,51.41115,-0.30590500000000004,huffkins-renowned-bakery-and-tearooms,0,0,0,0,0,0,0,0,0,0,0,0,0,0,0,0,0,0,0,0,0,0,0,0,0,0,0,0,0,0,2,15,6,3,7,4,1,0,0,0,0,0,0,0,0,0,0,0
475,570,104425547589290,The Punt Expedition,51.4948245,-0.1992004,the-punt-expedition,0,0,0,0,0,0,0,0,0,0,0,0,0,0,0,0,0,0,0,0,0,0,0,0,0,0,0,0,0,0,0,0,4,0,0,0,0,0,0,0,0,0,0,0,0,0,0,0
476,571,1044257575736036,Culver + Nelson,51.4651799,-0.2627399,culver-nelson,0,0,0,0,0,0,0,0,0,0,0,0,0,0,0,0,0,0,0,0,0,0,0,0,0,2,0,2,5,7,11,8,3,5,7,3,1,0,0,0,0,0,0,0,0,0,0,0
477,572,104429090901110,Bottle and Blade,51.5479,-0.04621,bottle-and-blade,0,0,0,0,0,0,0,0,0,0,0,0,0,0,0,0,0,0,0,0,0,0,0,0,0,0,0,0,0,0,0,5,2,0,2,1,0,0,0,0,0,0,0,0,0,0,0,0
478,573,104434926758238,Sim's Steakhouse,51.456516435299996,0.0112468074,sims-steakhouse,0,0,0,1,2,0,0,0,0,0,0,0,0,0,1,0,0,0,0,0,0,2,0,0,0,1,0,0,2,0,0,1,2,0,0,0,0,0,0,0,0,0,0,0,0,0,0,0
479,574,1044419218946841,All Bar One,51.459594,-0.1667003,all-bar-one,11,12,10,0,14,12,15,12,13,13,11,5,7,6,10,6,15,10,7,11,9,9,17,18,7,6,6,10,12,5,7,7,5,10,4,4,2,0,0,0,0,0,0,0,0,0,0,0
480,575,1044437149031901,Green Lanes Eyecare Centre,51.5810637,-0.0991873,green-lanes-eyecare-centre,0,0,0,0,0,0,0,0,0,0,0,0,0,1,4,0,1,0,0,0,1,2,1,0,1,0,1,1,0,0,0,0,0,0,0,0,0,0,0,0,0,0,0,0,0,0,0,0
481,576,104451667644064,Elite Car Tinting,51.5342786554,-0.2600508197,elite-car-tinting,0,0,0,0,0,0,0,0,0,0,0,0,0,0,0,0,0,0,0,0,0,0,0,0,0,0,0,0,0,0,0,0,0,2,24,11,6,0,0,0,0,0,0,0,0,0,0,0
482,577,104478914320251,The District Golders Green,51.57365,-0.20085,the-district-golders-green,0,0,0,0,0,0,0,0,0,0,0,0,0,0,0,0,0,0,0,0,0,0,0,0,0,0,0,0,0,0,0,0,0,3,7,6,5,0,0,0,0,0,0,0,0,0,0,0
483,579,104485740975770,Egx 2019,51.5078409771,0.0301265717,egx-2019,0,0,0,0,0,0,0,0,0,0,0,0,0,0,0,0,0,0,0,0,0,0,0,0,0,0,0,0,0,0,0,0,0,43,29,7,4,0,0,0,0,0,0,0,0,0,0,0
484,580,1044946398914007,New Wok's Cooking Halal Chinese Restaurant,51.409890000000004,-0.12269000000000001,new-woks-cooking-halal-chinese-restaurant,1,0,0,0,0,0,0,0,0,0,0,3,0,1,0,0,0,0,0,1,0,0,0,1,1,0,0,0,1,1,0,0,0,0,0,0,1,0,0,0,0,0,0,0,0,0,0,0
485,582,1044975785891992,O2 Cineworld 4dx,51.5038188183,0.0036684668,o2-cineworld-4dx,0,0,0,0,0,0,0,0,0,0,0,0,0,0,0,0,0,0,0,0,0,0,0,0,0,0,0,0,0,0,0,0,0,3,3,2,1,0,0,0,0,0,0,0,0,0,0,0
486,583,104499309614873,The Greystoke,51.5170295255,-0.28996085,the-greystoke,1,0,2,0,0,0,1,1,0,0,7,1,0,2,2,0,3,5,1,2,0,2,5,2,1,1,6,10,3,5,0,2,3,4,3,0,0,0,0,0,0,0,0,0,0,0,0,0
487,584,104514164302882,Zgrp LTD,51.43488,-0.19733989999999998,zgrp-ltd,0,0,0,0,0,0,0,0,0,0,0,0,0,0,0,0,0,0,0,0,0,0,0,0,0,0,0,0,0,0,0,0,0,0,1,3,1,0,0,0,0,0,0,0,0,0,0,0
488,585,1045266255602475,Tattoos by Vlad Luca,51.5015491875,-0.28568040629999997,tattoos-by-vlad-luca,0,0,0,0,3,11,12,7,20,12,4,2,2,7,9,1,0,0,0,1,0,0,0,0,0,0,0,0,0,0,0,0,0,0,12,3,7,0,0,0,0,0,0,0,0,0,0,0
489,586,1045336309187602,"Stratford and New Town, Newham",51.5399747967,-0.0060672897,stratford-and-new-town-newham,0,0,0,0,0,0,0,0,0,0,0,0,0,0,0,0,0,0,0,0,0,0,0,0,0,0,0,0,0,2,0,6,0,0,0,0,0,0,0,0,0,0,0,0,0,0,0,0
490,587,104550497661242,The Spencer Club,51.441301700000004,-0.1777239,the-spencer-club,0,0,0,0,0,0,0,0,0,0,0,0,0,0,0,0,0,0,0,0,0,0,0,0,0,0,0,0,0,0,0,0,0,0,8,10,6,0,0,0,0,0,0,0,0,0,0,0
491,588,1019078472,The Stag Gentleman's Grooming Salon,51.61495,-0.24602,the-stag-gentlemans-grooming-salon,9,7,2,1,1,6,5,4,1,3,2,1,2,3,3,1,4,2,2,1,1,3,0,3,5,0,0,0,0,0,1,0,0,2,0,0,0,0,0,0,0,0,0,0,0,0,0,0
492,589,1045746228825810,Costco Wembley,51.5566897194,-0.2722685282,costco-wembley,1,7,6,8,2,4,5,5,7,6,4,2,6,4,3,3,2,11,4,5,12,4,7,11,10,7,4,9,1,2,5,6,11,3,6,3,4,0,0,0,0,0,0,0,0,0,0,0
493,591,244611738,Queen Elizabeth Olympic Park,51.5442495019,-0.0146267828,queen-elizabeth-olympic-park,588,818,1390,2295,2645,5688,5075,13856,2323,1603,1219,935,826,1106,1363,1568,5528,3437,2714,4947,1669,1769,1934,988,1004,1387,1059,1063,1064,2292,1671,1304,959,966,659,551,344,0,0,0,0,0,0,0,0,0,0,0
494,593,104590314221294,Carbon Kopi,51.48645,-0.21485,carbon-kopi,0,0,0,0,0,0,0,0,0,0,0,0,0,0,0,0,0,0,0,0,0,0,0,0,0,0,0,0,0,0,0,1,4,31,24,24,9,0,0,0,0,0,0,0,0,0,0,0
495,594,104594984334516,The Hound Hut - Oval,51.480787114399995,-0.1138547878,the-hound-hut-oval,0,0,0,0,0,0,0,0,0,0,0,0,0,0,0,0,0,0,0,0,0,0,0,0,0,0,0,0,0,0,0,0,0,0,0,0,5,0,0,0,0,0,0,0,0,0,0,0
496,595,104602096255518,Santa Fe Relocation,51.5335635072,-0.2654187582,santa-fe-relocation,0,0,0,0,0,0,0,0,0,0,1,0,0,3,3,8,2,4,2,6,3,5,0,0,0,1,0,0,0,0,0,0,0,0,0,0,0,0,0,0,0,0,0,0,0,0,0,0
497,596,104610377567012,Riverside Pilates & Yoga Greenwich,51.48277,-0.01519,riverside-pilates-yoga-greenwich,0,0,0,0,0,0,0,0,0,0,0,0,0,0,0,0,0,0,0,0,0,0,0,0,0,0,0,0,0,0,0,0,0,3,3,0,0,0,0,0,0,0,0,0,0,0,0,0
498,597,104630464294292,Pokémon Center London,51.507196558500006,-0.2226016955,pokemon-center-london,0,0,0,0,0,0,0,0,0,0,0,0,0,0,0,0,0,0,0,0,0,0,0,0,0,0,0,0,0,0,1,0,0,136,477,40,8,0,0,0,0,0,0,0,0,0,0,0
499,598,1046439352071603,Cinephou,51.440312757200005,-0.24169921879999998,cinephou,0,0,0,0,0,0,0,0,0,0,0,0,0,7,4,2,0,1,1,0,1,1,1,0,0,0,0,0,0,0,0,0,0,0,0,0,0,0,0,0,0,0,0,0,0,0,0,0
500,605,258656790,Premier Gospel,51.4916729,-0.13346929999999999,premier-gospel,25,26,19,20,25,17,18,18,20,16,15,17,19,17,13,20,17,15,26,11,17,11,9,9,9,8,15,12,10,8,9,10,13,11,12,14,3,0,0,0,0,0,0,0,0,0,0,0
501,606,104680064268448,Pak Cuisine,51.5541766203,-0.0053287086,pak-cuisine,0,0,0,0,0,0,0,0,0,0,0,0,0,0,0,0,0,0,0,0,0,0,0,0,0,0,0,0,0,0,0,0,0,26,6,5,2,0,0,0,0,0,0,0,0,0,0,0
502,607,1046839368704175,South London Press,51.48573,0.02593,south-london-press,0,0,0,0,0,0,0,0,0,0,0,0,0,0,0,0,0,0,0,0,0,0,1,0,0,0,0,0,0,0,0,0,0,0,0,0,0,0,0,0,0,0,0,0,0,0,0,0
503,608,946166448,Elemental Herbology,51.53537,-0.21943000000000001,elemental-herbology,0,0,0,0,0,1,0,1,0,0,0,0,0,0,0,0,0,0,0,0,0,0,0,0,0,0,0,0,0,0,0,0,1,0,0,0,0,0,0,0,0,0,0,0,0,0,0,0
504,609,76392092,Thomson Foundation,51.5167495,-0.1123405,thomson-foundation,0,0,0,0,0,0,0,1,1,0,0,0,0,0,0,0,0,0,8,2,4,1,0,0,0,0,0,0,0,0,0,1,3,10,2,0,0,0,0,0,0,0,0,0,0,0,0,0
505,610,104705810987386,The Real Greek Westfield Stratford,51.5424003504,-0.0081614592,the-real-greek-westfield-stratford,0,0,0,0,0,0,0,0,0,0,0,0,0,0,0,0,0,0,0,0,0,0,0,0,0,0,0,0,0,0,0,0,0,0,2,10,4,0,0,0,0,0,0,0,0,0,0,0
